[
  {
    "category": "anti-social-behaviour",
    "location_type": "Force",
    "location": {
      "latitude": "51.905085",
      "street": {
        "id": 708572,
        "name": "On or near Stoneville Street"
      },
      "longitude": "-2.085436"
    },
    "context": "",
    "outcome_status": null,
    "persistent_id": "",
    "id": 90278112,
    "location_subtype": "",
    "month": "2021-02"
  },
  {
    "category": "anti-social-behaviour",
    "location_type": "Force",
    "location": {
      "latitude": "51.903177",
      "street": {
        "id": 707911,
        "name": "On or near Amos Close"
      },
      "longitude": "-2.088281"
    },
    "context": "",
    "outcome_status": null,
    "persistent_id": "",
    "id": 90278050,
    "location_subtype": "",
    "month": "2021-02"
  },
  {
    "category": "anti-social-behaviour",
    "location_type": "Force",
    "location": {
      "latitude": "51.903096",
      "street": {
        "id": 708173,
        "name": "On or near Seacome Road"
      },
      "longitude": "-2.118717"
    },
    "context": "",
    "outcome_status": null,
    "persistent_id": "",
    "id": 90278052,
    "location_subtype": "",
    "month": "2021-02"
  },
  {
    "category": "anti-social-behaviour",
    "location_type": "Force",
    "location": {
      "latitude": "51.911782",
      "street": {
        "id": 708421,
        "name": "On or near Brook Road"
      },
      "longitude": "-2.098111"
    },
    "context": "",
    "outcome_status": null,
    "persistent_id": "",
    "id": 90278080,
    "location_subtype": "",
    "month": "2021-02"
  },
  {
    "category": "anti-social-behaviour",
    "location_type": "Force",
    "location": {
      "latitude": "51.907796",
      "street": {
        "id": 708460,
        "name": "On or near Montreal Drive"
      },
      "longitude": "-2.111330"
    },
    "context": "",
    "outcome_status": null,
    "persistent_id": "",
    "id": 90278092,
    "location_subtype": "",
    "month": "2021-02"
  },
  {
    "category": "anti-social-behaviour",
    "location_type": "Force",
    "location": {
      "latitude": "51.910505",
      "street": {
        "id": 708611,
        "name": "On or near Elmfield Road"
      },
      "longitude": "-2.087103"
    },
    "context": "",
    "outcome_status": null,
    "persistent_id": "",
    "id": 90278106,
    "location_subtype": "",
    "month": "2021-02"
  },
  {
    "category": "anti-social-behaviour",
    "location_type": "Force",
    "location": {
      "latitude": "51.902959",
      "street": {
        "id": 707913,
        "name": "On or near Ambrose Street"
      },
      "longitude": "-2.079124"
    },
    "context": "",
    "outcome_status": null,
    "persistent_id": "",
    "id": 90278111,
    "location_subtype": "",
    "month": "2021-02"
  },
  {
    "category": "anti-social-behaviour",
    "location_type": "Force",
    "location": {
      "latitude": "51.902959",
      "street": {
        "id": 707913,
        "name": "On or near Ambrose Street"
      },
      "longitude": "-2.079124"
    },
    "context": "",
    "outcome_status": null,
    "persistent_id": "",
    "id": 90279188,
    "location_subtype": "",
    "month": "2021-02"
  },
  {
    "category": "anti-social-behaviour",
    "location_type": "Force",
    "location": {
      "latitude": "51.907849",
      "street": {
        "id": 708467,
        "name": "On or near Lechmere Road"
      },
      "longitude": "-2.113118"
    },
    "context": "",
    "outcome_status": null,
    "persistent_id": "",
    "id": 90278503,
    "location_subtype": "",
    "month": "2021-02"
  },
  {
    "category": "anti-social-behaviour",
    "location_type": "Force",
    "location": {
      "latitude": "51.916034",
      "street": {
        "id": 708402,
        "name": "On or near Newland View"
      },
      "longitude": "-2.109126"
    },
    "context": "",
    "outcome_status": null,
    "persistent_id": "",
    "id": 90278515,
    "location_subtype": "",
    "month": "2021-02"
  },
  {
    "category": "anti-social-behaviour",
    "location_type": "Force",
    "location": {
      "latitude": "51.911134",
      "street": {
        "id": 708360,
        "name": "On or near Beaumont Drive"
      },
      "longitude": "-2.118738"
    },
    "context": "",
    "outcome_status": null,
    "persistent_id": "",
    "id": 90278526,
    "location_subtype": "",
    "month": "2021-02"
  },
  {
    "category": "anti-social-behaviour",
    "location_type": "Force",
    "location": {
      "latitude": "51.895934",
      "street": {
        "id": 707949,
        "name": "On or near Royal Parade Mews"
      },
      "longitude": "-2.082745"
    },
    "context": "",
    "outcome_status": null,
    "persistent_id": "",
    "id": 90277805,
    "location_subtype": "",
    "month": "2021-02"
  },
  {
    "category": "anti-social-behaviour",
    "location_type": "Force",
    "location": {
      "latitude": "51.901877",
      "street": {
        "id": 708180,
        "name": "On or near Kempton Grove"
      },
      "longitude": "-2.124149"
    },
    "context": "",
    "outcome_status": null,
    "persistent_id": "",
    "id": 90277833,
    "location_subtype": "",
    "month": "2021-02"
  },
  {
    "category": "anti-social-behaviour",
    "location_type": "Force",
    "location": {
      "latitude": "51.909738",
      "street": {
        "id": 708497,
        "name": "On or near Sports/recreation Area"
      },
      "longitude": "-2.111393"
    },
    "context": "",
    "outcome_status": null,
    "persistent_id": "",
    "id": 90277838,
    "location_subtype": "",
    "month": "2021-02"
  },
  {
    "category": "anti-social-behaviour",
    "location_type": "Force",
    "location": {
      "latitude": "51.898899",
      "street": {
        "id": 708109,
        "name": "On or near Pitman Road"
      },
      "longitude": "-2.116729"
    },
    "context": "",
    "outcome_status": null,
    "persistent_id": "",
    "id": 90277848,
    "location_subtype": "",
    "month": "2021-02"
  },
  {
    "category": "anti-social-behaviour",
    "location_type": "Force",
    "location": {
      "latitude": "51.903343",
      "street": {
        "id": 707916,
        "name": "On or near Alstone Croft"
      },
      "longitude": "-2.094212"
    },
    "context": "",
    "outcome_status": null,
    "persistent_id": "",
    "id": 90277851,
    "location_subtype": "",
    "month": "2021-02"
  },
  {
    "category": "anti-social-behaviour",
    "location_type": "Force",
    "location": {
      "latitude": "51.910295",
      "street": {
        "id": 708447,
        "name": "On or near Pennington Court"
      },
      "longitude": "-2.112659"
    },
    "context": "",
    "outcome_status": null,
    "persistent_id": "",
    "id": 90277852,
    "location_subtype": "",
    "month": "2021-02"
  },
  {
    "category": "anti-social-behaviour",
    "location_type": "Force",
    "location": {
      "latitude": "51.902959",
      "street": {
        "id": 707913,
        "name": "On or near Ambrose Street"
      },
      "longitude": "-2.079124"
    },
    "context": "",
    "outcome_status": null,
    "persistent_id": "",
    "id": 90277858,
    "location_subtype": "",
    "month": "2021-02"
  },
  {
    "category": "anti-social-behaviour",
    "location_type": "Force",
    "location": {
      "latitude": "51.903792",
      "street": {
        "id": 708548,
        "name": "On or near Park Street"
      },
      "longitude": "-2.083675"
    },
    "context": "",
    "outcome_status": null,
    "persistent_id": "",
    "id": 90279678,
    "location_subtype": "",
    "month": "2021-02"
  },
  {
    "category": "anti-social-behaviour",
    "location_type": "Force",
    "location": {
      "latitude": "51.902959",
      "street": {
        "id": 707913,
        "name": "On or near Ambrose Street"
      },
      "longitude": "-2.079124"
    },
    "context": "",
    "outcome_status": null,
    "persistent_id": "",
    "id": 90277860,
    "location_subtype": "",
    "month": "2021-02"
  },
  {
    "category": "anti-social-behaviour",
    "location_type": "Force",
    "location": {
      "latitude": "51.902798",
      "street": {
        "id": 707894,
        "name": "On or near St George's Close"
      },
      "longitude": "-2.090359"
    },
    "context": "",
    "outcome_status": null,
    "persistent_id": "",
    "id": 90277873,
    "location_subtype": "",
    "month": "2021-02"
  },
  {
    "category": "anti-social-behaviour",
    "location_type": "Force",
    "location": {
      "latitude": "51.910346",
      "street": {
        "id": 708593,
        "name": "On or near Marsh Drive"
      },
      "longitude": "-2.083629"
    },
    "context": "",
    "outcome_status": null,
    "persistent_id": "",
    "id": 90279680,
    "location_subtype": "",
    "month": "2021-02"
  },
  {
    "category": "anti-social-behaviour",
    "location_type": "Force",
    "location": {
      "latitude": "51.913844",
      "street": {
        "id": 708408,
        "name": "On or near Gravney Court"
      },
      "longitude": "-2.114602"
    },
    "context": "",
    "outcome_status": null,
    "persistent_id": "",
    "id": 90278150,
    "location_subtype": "",
    "month": "2021-02"
  },
  {
    "category": "anti-social-behaviour",
    "location_type": "Force",
    "location": {
      "latitude": "51.902793",
      "street": {
        "id": 707907,
        "name": "On or near Great Western Road"
      },
      "longitude": "-2.084792"
    },
    "context": "",
    "outcome_status": null,
    "persistent_id": "",
    "id": 90278155,
    "location_subtype": "",
    "month": "2021-02"
  },
  {
    "category": "anti-social-behaviour",
    "location_type": "Force",
    "location": {
      "latitude": "51.904697",
      "street": {
        "id": 708420,
        "name": "On or near Bryanstone Close"
      },
      "longitude": "-2.098444"
    },
    "context": "",
    "outcome_status": null,
    "persistent_id": "",
    "id": 90278205,
    "location_subtype": "",
    "month": "2021-02"
  },
  {
    "category": "anti-social-behaviour",
    "location_type": "Force",
    "location": {
      "latitude": "51.904417",
      "street": {
        "id": 708480,
        "name": "On or near Cornwall Avenue"
      },
      "longitude": "-2.100624"
    },
    "context": "",
    "outcome_status": null,
    "persistent_id": "",
    "id": 90278230,
    "location_subtype": "",
    "month": "2021-02"
  },
  {
    "category": "anti-social-behaviour",
    "location_type": "Force",
    "location": {
      "latitude": "51.910295",
      "street": {
        "id": 708447,
        "name": "On or near Pennington Court"
      },
      "longitude": "-2.112659"
    },
    "context": "",
    "outcome_status": null,
    "persistent_id": "",
    "id": 90278232,
    "location_subtype": "",
    "month": "2021-02"
  },
  {
    "category": "anti-social-behaviour",
    "location_type": "Force",
    "location": {
      "latitude": "51.908983",
      "street": {
        "id": 708559,
        "name": "On or near Waterloo Street"
      },
      "longitude": "-2.090633"
    },
    "context": "",
    "outcome_status": null,
    "persistent_id": "",
    "id": 90278456,
    "location_subtype": "",
    "month": "2021-02"
  },
  {
    "category": "anti-social-behaviour",
    "location_type": "Force",
    "location": {
      "latitude": "51.906046",
      "street": {
        "id": 708639,
        "name": "On or near Supermarket"
      },
      "longitude": "-2.086804"
    },
    "context": "",
    "outcome_status": null,
    "persistent_id": "",
    "id": 90278487,
    "location_subtype": "",
    "month": "2021-02"
  },
  {
    "category": "anti-social-behaviour",
    "location_type": "Force",
    "location": {
      "latitude": "51.907871",
      "street": {
        "id": 708454,
        "name": "On or near Oldbury Close"
      },
      "longitude": "-2.117843"
    },
    "context": "",
    "outcome_status": null,
    "persistent_id": "",
    "id": 90278563,
    "location_subtype": "",
    "month": "2021-02"
  },
  {
    "category": "anti-social-behaviour",
    "location_type": "Force",
    "location": {
      "latitude": "51.904697",
      "street": {
        "id": 708420,
        "name": "On or near Bryanstone Close"
      },
      "longitude": "-2.098444"
    },
    "context": "",
    "outcome_status": null,
    "persistent_id": "",
    "id": 90278616,
    "location_subtype": "",
    "month": "2021-02"
  },
  {
    "category": "anti-social-behaviour",
    "location_type": "Force",
    "location": {
      "latitude": "51.902949",
      "street": {
        "id": 707895,
        "name": "On or near Royal Oak Mews"
      },
      "longitude": "-2.080577"
    },
    "context": "",
    "outcome_status": null,
    "persistent_id": "",
    "id": 90278618,
    "location_subtype": "",
    "month": "2021-02"
  },
  {
    "category": "anti-social-behaviour",
    "location_type": "Force",
    "location": {
      "latitude": "51.907308",
      "street": {
        "id": 708622,
        "name": "On or near Carlton Place"
      },
      "longitude": "-2.082867"
    },
    "context": "",
    "outcome_status": null,
    "persistent_id": "",
    "id": 90278916,
    "location_subtype": "",
    "month": "2021-02"
  },
  {
    "category": "anti-social-behaviour",
    "location_type": "Force",
    "location": {
      "latitude": "51.902959",
      "street": {
        "id": 707913,
        "name": "On or near Ambrose Street"
      },
      "longitude": "-2.079124"
    },
    "context": "",
    "outcome_status": null,
    "persistent_id": "",
    "id": 90278935,
    "location_subtype": "",
    "month": "2021-02"
  },
  {
    "category": "anti-social-behaviour",
    "location_type": "Force",
    "location": {
      "latitude": "51.910908",
      "street": {
        "id": 708479,
        "name": "On or near Dill Avenue"
      },
      "longitude": "-2.110800"
    },
    "context": "",
    "outcome_status": null,
    "persistent_id": "",
    "id": 90278938,
    "location_subtype": "",
    "month": "2021-02"
  },
  {
    "category": "anti-social-behaviour",
    "location_type": "Force",
    "location": {
      "latitude": "51.903067",
      "street": {
        "id": 707905,
        "name": "On or near High Street"
      },
      "longitude": "-2.079022"
    },
    "context": "",
    "outcome_status": null,
    "persistent_id": "",
    "id": 90278939,
    "location_subtype": "",
    "month": "2021-02"
  },
  {
    "category": "anti-social-behaviour",
    "location_type": "Force",
    "location": {
      "latitude": "51.912832",
      "street": {
        "id": 708475,
        "name": "On or near Frank Brookes Road"
      },
      "longitude": "-2.101123"
    },
    "context": "",
    "outcome_status": null,
    "persistent_id": "",
    "id": 90278965,
    "location_subtype": "",
    "month": "2021-02"
  },
  {
    "category": "anti-social-behaviour",
    "location_type": "Force",
    "location": {
      "latitude": "51.907004",
      "street": {
        "id": 708577,
        "name": "On or near St Paul's Road"
      },
      "longitude": "-2.079102"
    },
    "context": "",
    "outcome_status": null,
    "persistent_id": "",
    "id": 90279198,
    "location_subtype": "",
    "month": "2021-02"
  },
  {
    "category": "anti-social-behaviour",
    "location_type": "Force",
    "location": {
      "latitude": "51.902400",
      "street": {
        "id": 708084,
        "name": "On or near Buckingham Avenue"
      },
      "longitude": "-2.103265"
    },
    "context": "",
    "outcome_status": null,
    "persistent_id": "",
    "id": 90278264,
    "location_subtype": "",
    "month": "2021-02"
  },
  {
    "category": "anti-social-behaviour",
    "location_type": "Force",
    "location": {
      "latitude": "51.910732",
      "street": {
        "id": 700939,
        "name": "On or near Dormer Road"
      },
      "longitude": "-2.106613"
    },
    "context": "",
    "outcome_status": null,
    "persistent_id": "",
    "id": 90278269,
    "location_subtype": "",
    "month": "2021-02"
  },
  {
    "category": "anti-social-behaviour",
    "location_type": "Force",
    "location": {
      "latitude": "51.905735",
      "street": {
        "id": 708621,
        "name": "On or near Central Way"
      },
      "longitude": "-2.093504"
    },
    "context": "",
    "outcome_status": null,
    "persistent_id": "",
    "id": 90278274,
    "location_subtype": "",
    "month": "2021-02"
  },
  {
    "category": "anti-social-behaviour",
    "location_type": "Force",
    "location": {
      "latitude": "51.898042",
      "street": {
        "id": 708221,
        "name": "On or near Sotherby Drive"
      },
      "longitude": "-2.120055"
    },
    "context": "",
    "outcome_status": null,
    "persistent_id": "",
    "id": 90278974,
    "location_subtype": "",
    "month": "2021-02"
  },
  {
    "category": "anti-social-behaviour",
    "location_type": "Force",
    "location": {
      "latitude": "51.903260",
      "street": {
        "id": 708087,
        "name": "On or near Sports/recreation Area"
      },
      "longitude": "-2.106784"
    },
    "context": "",
    "outcome_status": null,
    "persistent_id": "",
    "id": 90279046,
    "location_subtype": "",
    "month": "2021-02"
  },
  {
    "category": "anti-social-behaviour",
    "location_type": "Force",
    "location": {
      "latitude": "51.907849",
      "street": {
        "id": 708467,
        "name": "On or near Lechmere Road"
      },
      "longitude": "-2.113118"
    },
    "context": "",
    "outcome_status": null,
    "persistent_id": "",
    "id": 90279054,
    "location_subtype": "",
    "month": "2021-02"
  },
  {
    "category": "anti-social-behaviour",
    "location_type": "Force",
    "location": {
      "latitude": "51.901613",
      "street": {
        "id": 707903,
        "name": "On or near Honeybourne Way"
      },
      "longitude": "-2.086999"
    },
    "context": "",
    "outcome_status": null,
    "persistent_id": "",
    "id": 90278698,
    "location_subtype": "",
    "month": "2021-02"
  },
  {
    "category": "anti-social-behaviour",
    "location_type": "Force",
    "location": {
      "latitude": "51.902850",
      "street": {
        "id": 707917,
        "name": "On or near Alstone Avenue"
      },
      "longitude": "-2.092365"
    },
    "context": "",
    "outcome_status": null,
    "persistent_id": "",
    "id": 90278703,
    "location_subtype": "",
    "month": "2021-02"
  },
  {
    "category": "anti-social-behaviour",
    "location_type": "Force",
    "location": {
      "latitude": "51.904081",
      "street": {
        "id": 708604,
        "name": "On or near High Street"
      },
      "longitude": "-2.081553"
    },
    "context": "",
    "outcome_status": null,
    "persistent_id": "",
    "id": 90278716,
    "location_subtype": "",
    "month": "2021-02"
  },
  {
    "category": "anti-social-behaviour",
    "location_type": "Force",
    "location": {
      "latitude": "51.903067",
      "street": {
        "id": 707905,
        "name": "On or near High Street"
      },
      "longitude": "-2.079022"
    },
    "context": "",
    "outcome_status": null,
    "persistent_id": "",
    "id": 90278738,
    "location_subtype": "",
    "month": "2021-02"
  },
  {
    "category": "anti-social-behaviour",
    "location_type": "Force",
    "location": {
      "latitude": "51.896826",
      "street": {
        "id": 708143,
        "name": "On or near Fairmount Road"
      },
      "longitude": "-2.103383"
    },
    "context": "",
    "outcome_status": null,
    "persistent_id": "",
    "id": 90279064,
    "location_subtype": "",
    "month": "2021-02"
  },
  {
    "category": "anti-social-behaviour",
    "location_type": "Force",
    "location": {
      "latitude": "51.901457",
      "street": {
        "id": 708076,
        "name": "On or near Goldsmith Close"
      },
      "longitude": "-2.112797"
    },
    "context": "",
    "outcome_status": null,
    "persistent_id": "",
    "id": 90278806,
    "location_subtype": "",
    "month": "2021-02"
  },
  {
    "category": "anti-social-behaviour",
    "location_type": "Force",
    "location": {
      "latitude": "51.894878",
      "street": {
        "id": 708055,
        "name": "On or near Lansdown Crescent Lane"
      },
      "longitude": "-2.088236"
    },
    "context": "",
    "outcome_status": null,
    "persistent_id": "",
    "id": 90279487,
    "location_subtype": "",
    "month": "2021-02"
  },
  {
    "category": "anti-social-behaviour",
    "location_type": "Force",
    "location": {
      "latitude": "51.895378",
      "street": {
        "id": 707934,
        "name": "On or near The Grove"
      },
      "longitude": "-2.092742"
    },
    "context": "",
    "outcome_status": null,
    "persistent_id": "",
    "id": 90279139,
    "location_subtype": "",
    "month": "2021-02"
  },
  {
    "category": "anti-social-behaviour",
    "location_type": "Force",
    "location": {
      "latitude": "51.897378",
      "street": {
        "id": 708167,
        "name": "On or near Queen's Road"
      },
      "longitude": "-2.098850"
    },
    "context": "",
    "outcome_status": null,
    "persistent_id": "",
    "id": 90279154,
    "location_subtype": "",
    "month": "2021-02"
  },
  {
    "category": "anti-social-behaviour",
    "location_type": "Force",
    "location": {
      "latitude": "51.904793",
      "street": {
        "id": 708567,
        "name": "On or near Swindon Road"
      },
      "longitude": "-2.078996"
    },
    "context": "",
    "outcome_status": null,
    "persistent_id": "",
    "id": 90279630,
    "location_subtype": "",
    "month": "2021-02"
  },
  {
    "category": "anti-social-behaviour",
    "location_type": "Force",
    "location": {
      "latitude": "51.902006",
      "street": {
        "id": 708085,
        "name": "On or near Britten Place"
      },
      "longitude": "-2.111505"
    },
    "context": "",
    "outcome_status": null,
    "persistent_id": "",
    "id": 90279612,
    "location_subtype": "",
    "month": "2021-02"
  },
  {
    "category": "anti-social-behaviour",
    "location_type": "Force",
    "location": {
      "latitude": "51.893379",
      "street": {
        "id": 708165,
        "name": "On or near Police Station"
      },
      "longitude": "-2.096806"
    },
    "context": "",
    "outcome_status": null,
    "persistent_id": "",
    "id": 90279611,
    "location_subtype": "",
    "month": "2021-02"
  },
  {
    "category": "anti-social-behaviour",
    "location_type": "Force",
    "location": {
      "latitude": "51.907796",
      "street": {
        "id": 708460,
        "name": "On or near Montreal Drive"
      },
      "longitude": "-2.111330"
    },
    "context": "",
    "outcome_status": null,
    "persistent_id": "",
    "id": 90279604,
    "location_subtype": "",
    "month": "2021-02"
  },
  {
    "category": "anti-social-behaviour",
    "location_type": "Force",
    "location": {
      "latitude": "51.913855",
      "street": {
        "id": 708412,
        "name": "On or near Bodnam Road"
      },
      "longitude": "-2.113119"
    },
    "context": "",
    "outcome_status": null,
    "persistent_id": "",
    "id": 90279600,
    "location_subtype": "",
    "month": "2021-02"
  },
  {
    "category": "anti-social-behaviour",
    "location_type": "Force",
    "location": {
      "latitude": "51.897637",
      "street": {
        "id": 708117,
        "name": "On or near Libertus Court"
      },
      "longitude": "-2.101219"
    },
    "context": "",
    "outcome_status": null,
    "persistent_id": "",
    "id": 90279584,
    "location_subtype": "",
    "month": "2021-02"
  },
  {
    "category": "anti-social-behaviour",
    "location_type": "Force",
    "location": {
      "latitude": "51.903260",
      "street": {
        "id": 708087,
        "name": "On or near Sports/recreation Area"
      },
      "longitude": "-2.106784"
    },
    "context": "",
    "outcome_status": null,
    "persistent_id": "",
    "id": 90279558,
    "location_subtype": "",
    "month": "2021-02"
  },
  {
    "category": "anti-social-behaviour",
    "location_type": "Force",
    "location": {
      "latitude": "51.902001",
      "street": {
        "id": 708090,
        "name": "On or near Hospital"
      },
      "longitude": "-2.116984"
    },
    "context": "",
    "outcome_status": null,
    "persistent_id": "",
    "id": 90279428,
    "location_subtype": "",
    "month": "2021-02"
  },
  {
    "category": "anti-social-behaviour",
    "location_type": "Force",
    "location": {
      "latitude": "51.903025",
      "street": {
        "id": 708057,
        "name": "On or near School Mead"
      },
      "longitude": "-2.098324"
    },
    "context": "",
    "outcome_status": null,
    "persistent_id": "",
    "id": 90279422,
    "location_subtype": "",
    "month": "2021-02"
  },
  {
    "category": "anti-social-behaviour",
    "location_type": "Force",
    "location": {
      "latitude": "51.908455",
      "street": {
        "id": 708439,
        "name": "On or near Russet Road"
      },
      "longitude": "-2.109311"
    },
    "context": "",
    "outcome_status": null,
    "persistent_id": "",
    "id": 90279589,
    "location_subtype": "",
    "month": "2021-02"
  },
  {
    "category": "anti-social-behaviour",
    "location_type": "Force",
    "location": {
      "latitude": "51.909314",
      "street": {
        "id": 708486,
        "name": "On or near Brooklyn Close"
      },
      "longitude": "-2.103164"
    },
    "context": "",
    "outcome_status": null,
    "persistent_id": "",
    "id": 90279750,
    "location_subtype": "",
    "month": "2021-02"
  },
  {
    "category": "anti-social-behaviour",
    "location_type": "Force",
    "location": {
      "latitude": "51.910346",
      "street": {
        "id": 708593,
        "name": "On or near Marsh Drive"
      },
      "longitude": "-2.083629"
    },
    "context": "",
    "outcome_status": null,
    "persistent_id": "",
    "id": 90279748,
    "location_subtype": "",
    "month": "2021-02"
  },
  {
    "category": "anti-social-behaviour",
    "location_type": "Force",
    "location": {
      "latitude": "51.904015",
      "street": {
        "id": 708595,
        "name": "On or near Market Street"
      },
      "longitude": "-2.085681"
    },
    "context": "",
    "outcome_status": null,
    "persistent_id": "",
    "id": 90279408,
    "location_subtype": "",
    "month": "2021-02"
  },
  {
    "category": "anti-social-behaviour",
    "location_type": "Force",
    "location": {
      "latitude": "51.907796",
      "street": {
        "id": 708460,
        "name": "On or near Montreal Drive"
      },
      "longitude": "-2.111330"
    },
    "context": "",
    "outcome_status": null,
    "persistent_id": "",
    "id": 90279311,
    "location_subtype": "",
    "month": "2021-02"
  },
  {
    "category": "anti-social-behaviour",
    "location_type": "Force",
    "location": {
      "latitude": "51.903260",
      "street": {
        "id": 708087,
        "name": "On or near Sports/recreation Area"
      },
      "longitude": "-2.106784"
    },
    "context": "",
    "outcome_status": null,
    "persistent_id": "",
    "id": 90279301,
    "location_subtype": "",
    "month": "2021-02"
  },
  {
    "category": "anti-social-behaviour",
    "location_type": "Force",
    "location": {
      "latitude": "51.901985",
      "street": {
        "id": 708065,
        "name": "On or near Surrey Avenue"
      },
      "longitude": "-2.105531"
    },
    "context": "",
    "outcome_status": null,
    "persistent_id": "",
    "id": 90279419,
    "location_subtype": "",
    "month": "2021-02"
  },
  {
    "category": "anti-social-behaviour",
    "location_type": "Force",
    "location": {
      "latitude": "51.905050",
      "street": {
        "id": 708602,
        "name": "On or near High Street"
      },
      "longitude": "-2.083837"
    },
    "context": "",
    "outcome_status": null,
    "persistent_id": "",
    "id": 90278378,
    "location_subtype": "",
    "month": "2021-02"
  },
  {
    "category": "anti-social-behaviour",
    "location_type": "Force",
    "location": {
      "latitude": "51.894717",
      "street": {
        "id": 707979,
        "name": "On or near Lansdown Place Lane"
      },
      "longitude": "-2.087465"
    },
    "context": "",
    "outcome_status": null,
    "persistent_id": "",
    "id": 90278352,
    "location_subtype": "",
    "month": "2021-02"
  },
  {
    "category": "anti-social-behaviour",
    "location_type": "Force",
    "location": {
      "latitude": "51.903666",
      "street": {
        "id": 708551,
        "name": "On or near Burton Street"
      },
      "longitude": "-2.083195"
    },
    "context": "",
    "outcome_status": null,
    "persistent_id": "",
    "id": 90278334,
    "location_subtype": "",
    "month": "2021-02"
  },
  {
    "category": "anti-social-behaviour",
    "location_type": "Force",
    "location": {
      "latitude": "51.894717",
      "street": {
        "id": 707979,
        "name": "On or near Lansdown Place Lane"
      },
      "longitude": "-2.087465"
    },
    "context": "",
    "outcome_status": null,
    "persistent_id": "",
    "id": 90278327,
    "location_subtype": "",
    "month": "2021-02"
  },
  {
    "category": "anti-social-behaviour",
    "location_type": "Force",
    "location": {
      "latitude": "51.910204",
      "street": {
        "id": 708473,
        "name": "On or near Grevil Road"
      },
      "longitude": "-2.103195"
    },
    "context": "",
    "outcome_status": null,
    "persistent_id": "",
    "id": 90278317,
    "location_subtype": "",
    "month": "2021-02"
  },
  {
    "category": "anti-social-behaviour",
    "location_type": "Force",
    "location": {
      "latitude": "51.903263",
      "street": {
        "id": 708073,
        "name": "On or near Laxton Road"
      },
      "longitude": "-2.113150"
    },
    "context": "",
    "outcome_status": null,
    "persistent_id": "",
    "id": 90278308,
    "location_subtype": "",
    "month": "2021-02"
  },
  {
    "category": "anti-social-behaviour",
    "location_type": "Force",
    "location": {
      "latitude": "51.908518",
      "street": {
        "id": 708583,
        "name": "On or near Queen Street"
      },
      "longitude": "-2.087303"
    },
    "context": "",
    "outcome_status": null,
    "persistent_id": "",
    "id": 90278307,
    "location_subtype": "",
    "month": "2021-02"
  },
  {
    "category": "anti-social-behaviour",
    "location_type": "Force",
    "location": {
      "latitude": "51.907796",
      "street": {
        "id": 708460,
        "name": "On or near Montreal Drive"
      },
      "longitude": "-2.111330"
    },
    "context": "",
    "outcome_status": null,
    "persistent_id": "",
    "id": 90277567,
    "location_subtype": "",
    "month": "2021-02"
  },
  {
    "category": "anti-social-behaviour",
    "location_type": "Force",
    "location": {
      "latitude": "51.903263",
      "street": {
        "id": 708073,
        "name": "On or near Laxton Road"
      },
      "longitude": "-2.113150"
    },
    "context": "",
    "outcome_status": null,
    "persistent_id": "",
    "id": 90277566,
    "location_subtype": "",
    "month": "2021-02"
  },
  {
    "category": "anti-social-behaviour",
    "location_type": "Force",
    "location": {
      "latitude": "51.899151",
      "street": {
        "id": 708162,
        "name": "On or near Stow Court"
      },
      "longitude": "-2.097473"
    },
    "context": "",
    "outcome_status": null,
    "persistent_id": "",
    "id": 90277560,
    "location_subtype": "",
    "month": "2021-02"
  },
  {
    "category": "anti-social-behaviour",
    "location_type": "Force",
    "location": {
      "latitude": "51.901877",
      "street": {
        "id": 708180,
        "name": "On or near Kempton Grove"
      },
      "longitude": "-2.124149"
    },
    "context": "",
    "outcome_status": null,
    "persistent_id": "",
    "id": 90277551,
    "location_subtype": "",
    "month": "2021-02"
  },
  {
    "category": "anti-social-behaviour",
    "location_type": "Force",
    "location": {
      "latitude": "51.908370",
      "street": {
        "id": 708630,
        "name": "On or near Aldridge Close"
      },
      "longitude": "-2.081372"
    },
    "context": "",
    "outcome_status": null,
    "persistent_id": "",
    "id": 90277544,
    "location_subtype": "",
    "month": "2021-02"
  },
  {
    "category": "anti-social-behaviour",
    "location_type": "Force",
    "location": {
      "latitude": "51.899151",
      "street": {
        "id": 708162,
        "name": "On or near Stow Court"
      },
      "longitude": "-2.097473"
    },
    "context": "",
    "outcome_status": null,
    "persistent_id": "",
    "id": 90277540,
    "location_subtype": "",
    "month": "2021-02"
  },
  {
    "category": "anti-social-behaviour",
    "location_type": "Force",
    "location": {
      "latitude": "51.905987",
      "street": {
        "id": 708383,
        "name": "On or near Dunster Close"
      },
      "longitude": "-2.122736"
    },
    "context": "",
    "outcome_status": null,
    "persistent_id": "",
    "id": 90277525,
    "location_subtype": "",
    "month": "2021-02"
  },
  {
    "category": "anti-social-behaviour",
    "location_type": "Force",
    "location": {
      "latitude": "51.902284",
      "street": {
        "id": 708184,
        "name": "On or near Admiral Close"
      },
      "longitude": "-2.121374"
    },
    "context": "",
    "outcome_status": null,
    "persistent_id": "",
    "id": 90279666,
    "location_subtype": "",
    "month": "2021-02"
  },
  {
    "category": "anti-social-behaviour",
    "location_type": "Force",
    "location": {
      "latitude": "51.909738",
      "street": {
        "id": 708497,
        "name": "On or near Sports/recreation Area"
      },
      "longitude": "-2.111393"
    },
    "context": "",
    "outcome_status": null,
    "persistent_id": "",
    "id": 90277523,
    "location_subtype": "",
    "month": "2021-02"
  },
  {
    "category": "anti-social-behaviour",
    "location_type": "Force",
    "location": {
      "latitude": "51.916589",
      "street": {
        "id": 708396,
        "name": "On or near Rutherford Way"
      },
      "longitude": "-2.101858"
    },
    "context": "",
    "outcome_status": null,
    "persistent_id": "",
    "id": 90278000,
    "location_subtype": "",
    "month": "2021-02"
  },
  {
    "category": "anti-social-behaviour",
    "location_type": "Force",
    "location": {
      "latitude": "51.894985",
      "street": {
        "id": 707981,
        "name": "On or near Lansdown Parade"
      },
      "longitude": "-2.090212"
    },
    "context": "",
    "outcome_status": null,
    "persistent_id": "",
    "id": 90277993,
    "location_subtype": "",
    "month": "2021-02"
  },
  {
    "category": "anti-social-behaviour",
    "location_type": "Force",
    "location": {
      "latitude": "51.901877",
      "street": {
        "id": 708180,
        "name": "On or near Kempton Grove"
      },
      "longitude": "-2.124149"
    },
    "context": "",
    "outcome_status": null,
    "persistent_id": "",
    "id": 90277980,
    "location_subtype": "",
    "month": "2021-02"
  },
  {
    "category": "anti-social-behaviour",
    "location_type": "Force",
    "location": {
      "latitude": "51.905647",
      "street": {
        "id": 708530,
        "name": "On or near St Paul's Street North"
      },
      "longitude": "-2.078227"
    },
    "context": "",
    "outcome_status": null,
    "persistent_id": "",
    "id": 90277978,
    "location_subtype": "",
    "month": "2021-02"
  },
  {
    "category": "anti-social-behaviour",
    "location_type": "Force",
    "location": {
      "latitude": "51.901877",
      "street": {
        "id": 708180,
        "name": "On or near Kempton Grove"
      },
      "longitude": "-2.124149"
    },
    "context": "",
    "outcome_status": null,
    "persistent_id": "",
    "id": 90277962,
    "location_subtype": "",
    "month": "2021-02"
  },
  {
    "category": "anti-social-behaviour",
    "location_type": "Force",
    "location": {
      "latitude": "51.902001",
      "street": {
        "id": 708090,
        "name": "On or near Hospital"
      },
      "longitude": "-2.116984"
    },
    "context": "",
    "outcome_status": null,
    "persistent_id": "",
    "id": 90277956,
    "location_subtype": "",
    "month": "2021-02"
  },
  {
    "category": "anti-social-behaviour",
    "location_type": "Force",
    "location": {
      "latitude": "51.898042",
      "street": {
        "id": 708221,
        "name": "On or near Sotherby Drive"
      },
      "longitude": "-2.120055"
    },
    "context": "",
    "outcome_status": null,
    "persistent_id": "",
    "id": 90278164,
    "location_subtype": "",
    "month": "2021-02"
  },
  {
    "category": "anti-social-behaviour",
    "location_type": "Force",
    "location": {
      "latitude": "51.908518",
      "street": {
        "id": 708583,
        "name": "On or near Queen Street"
      },
      "longitude": "-2.087303"
    },
    "context": "",
    "outcome_status": null,
    "persistent_id": "",
    "id": 90277778,
    "location_subtype": "",
    "month": "2021-02"
  },
  {
    "category": "anti-social-behaviour",
    "location_type": "Force",
    "location": {
      "latitude": "51.898863",
      "street": {
        "id": 708146,
        "name": "On or near Cowper Road"
      },
      "longitude": "-2.117412"
    },
    "context": "",
    "outcome_status": null,
    "persistent_id": "",
    "id": 90277740,
    "location_subtype": "",
    "month": "2021-02"
  },
  {
    "category": "anti-social-behaviour",
    "location_type": "Force",
    "location": {
      "latitude": "51.904966",
      "street": {
        "id": 708344,
        "name": "On or near Winterbotham Road"
      },
      "longitude": "-2.118445"
    },
    "context": "",
    "outcome_status": null,
    "persistent_id": "",
    "id": 90277719,
    "location_subtype": "",
    "month": "2021-02"
  },
  {
    "category": "anti-social-behaviour",
    "location_type": "Force",
    "location": {
      "latitude": "51.908518",
      "street": {
        "id": 708583,
        "name": "On or near Queen Street"
      },
      "longitude": "-2.087303"
    },
    "context": "",
    "outcome_status": null,
    "persistent_id": "",
    "id": 90277513,
    "location_subtype": "",
    "month": "2021-02"
  },
  {
    "category": "anti-social-behaviour",
    "location_type": "Force",
    "location": {
      "latitude": "51.902274",
      "street": {
        "id": 708178,
        "name": "On or near Swallowtail Close"
      },
      "longitude": "-2.122392"
    },
    "context": "",
    "outcome_status": null,
    "persistent_id": "",
    "id": 90279756,
    "location_subtype": "",
    "month": "2021-02"
  },
  {
    "category": "anti-social-behaviour",
    "location_type": "Force",
    "location": {
      "latitude": "51.902274",
      "street": {
        "id": 708178,
        "name": "On or near Swallowtail Close"
      },
      "longitude": "-2.122392"
    },
    "context": "",
    "outcome_status": null,
    "persistent_id": "",
    "id": 90277507,
    "location_subtype": "",
    "month": "2021-02"
  },
  {
    "category": "anti-social-behaviour",
    "location_type": "Force",
    "location": {
      "latitude": "51.910295",
      "street": {
        "id": 708447,
        "name": "On or near Pennington Court"
      },
      "longitude": "-2.112659"
    },
    "context": "",
    "outcome_status": null,
    "persistent_id": "",
    "id": 90277503,
    "location_subtype": "",
    "month": "2021-02"
  },
  {
    "category": "anti-social-behaviour",
    "location_type": "Force",
    "location": {
      "latitude": "51.918163",
      "street": {
        "id": 708943,
        "name": "On or near Mackenzie Way"
      },
      "longitude": "-2.100786"
    },
    "context": "",
    "outcome_status": null,
    "persistent_id": "",
    "id": 90279351,
    "location_subtype": "",
    "month": "2021-02"
  },
  {
    "category": "anti-social-behaviour",
    "location_type": "Force",
    "location": {
      "latitude": "51.897378",
      "street": {
        "id": 708167,
        "name": "On or near Queen's Road"
      },
      "longitude": "-2.098850"
    },
    "context": "",
    "outcome_status": null,
    "persistent_id": "",
    "id": 90277483,
    "location_subtype": "",
    "month": "2021-02"
  },
  {
    "category": "anti-social-behaviour",
    "location_type": "Force",
    "location": {
      "latitude": "51.896851",
      "street": {
        "id": 708150,
        "name": "On or near Chad Road"
      },
      "longitude": "-2.105461"
    },
    "context": "",
    "outcome_status": null,
    "persistent_id": "",
    "id": 90277475,
    "location_subtype": "",
    "month": "2021-02"
  },
  {
    "category": "anti-social-behaviour",
    "location_type": "Force",
    "location": {
      "latitude": "51.914236",
      "street": {
        "id": 708335,
        "name": "On or near Pilgrove Close"
      },
      "longitude": "-2.118179"
    },
    "context": "",
    "outcome_status": null,
    "persistent_id": "",
    "id": 90279753,
    "location_subtype": "",
    "month": "2021-02"
  },
  {
    "category": "anti-social-behaviour",
    "location_type": "Force",
    "location": {
      "latitude": "51.903263",
      "street": {
        "id": 708073,
        "name": "On or near Laxton Road"
      },
      "longitude": "-2.113150"
    },
    "context": "",
    "outcome_status": null,
    "persistent_id": "",
    "id": 90277710,
    "location_subtype": "",
    "month": "2021-02"
  },
  {
    "category": "anti-social-behaviour",
    "location_type": "Force",
    "location": {
      "latitude": "51.914642",
      "street": {
        "id": 708512,
        "name": "On or near Midwinter Gardens"
      },
      "longitude": "-2.085381"
    },
    "context": "",
    "outcome_status": null,
    "persistent_id": "",
    "id": 90277688,
    "location_subtype": "",
    "month": "2021-02"
  },
  {
    "category": "anti-social-behaviour",
    "location_type": "Force",
    "location": {
      "latitude": "51.903263",
      "street": {
        "id": 708073,
        "name": "On or near Laxton Road"
      },
      "longitude": "-2.113150"
    },
    "context": "",
    "outcome_status": null,
    "persistent_id": "",
    "id": 90277683,
    "location_subtype": "",
    "month": "2021-02"
  },
  {
    "category": "anti-social-behaviour",
    "location_type": "Force",
    "location": {
      "latitude": "51.903449",
      "street": {
        "id": 708062,
        "name": "On or near Wilson Drive"
      },
      "longitude": "-2.116741"
    },
    "context": "",
    "outcome_status": null,
    "persistent_id": "",
    "id": 90277677,
    "location_subtype": "",
    "month": "2021-02"
  },
  {
    "category": "anti-social-behaviour",
    "location_type": "Force",
    "location": {
      "latitude": "51.901877",
      "street": {
        "id": 708180,
        "name": "On or near Kempton Grove"
      },
      "longitude": "-2.124149"
    },
    "context": "",
    "outcome_status": null,
    "persistent_id": "",
    "id": 90277674,
    "location_subtype": "",
    "month": "2021-02"
  },
  {
    "category": "anti-social-behaviour",
    "location_type": "Force",
    "location": {
      "latitude": "51.894015",
      "street": {
        "id": 708141,
        "name": "On or near Finstock Close"
      },
      "longitude": "-2.109654"
    },
    "context": "",
    "outcome_status": null,
    "persistent_id": "",
    "id": 90277650,
    "location_subtype": "",
    "month": "2021-02"
  },
  {
    "category": "anti-social-behaviour",
    "location_type": "Force",
    "location": {
      "latitude": "51.913086",
      "street": {
        "id": 708490,
        "name": "On or near Blake Croft"
      },
      "longitude": "-2.117551"
    },
    "context": "",
    "outcome_status": null,
    "persistent_id": "",
    "id": 90279625,
    "location_subtype": "",
    "month": "2021-02"
  },
  {
    "category": "anti-social-behaviour",
    "location_type": "Force",
    "location": {
      "latitude": "51.909738",
      "street": {
        "id": 708497,
        "name": "On or near Sports/recreation Area"
      },
      "longitude": "-2.111393"
    },
    "context": "",
    "outcome_status": null,
    "persistent_id": "",
    "id": 90277647,
    "location_subtype": "",
    "month": "2021-02"
  },
  {
    "category": "anti-social-behaviour",
    "location_type": "Force",
    "location": {
      "latitude": "51.902001",
      "street": {
        "id": 708090,
        "name": "On or near Hospital"
      },
      "longitude": "-2.116984"
    },
    "context": "",
    "outcome_status": null,
    "persistent_id": "",
    "id": 90277623,
    "location_subtype": "",
    "month": "2021-02"
  },
  {
    "category": "anti-social-behaviour",
    "location_type": "Force",
    "location": {
      "latitude": "51.907796",
      "street": {
        "id": 708460,
        "name": "On or near Montreal Drive"
      },
      "longitude": "-2.111330"
    },
    "context": "",
    "outcome_status": null,
    "persistent_id": "",
    "id": 90277596,
    "location_subtype": "",
    "month": "2021-02"
  },
  {
    "category": "anti-social-behaviour",
    "location_type": "Force",
    "location": {
      "latitude": "51.899350",
      "street": {
        "id": 707942,
        "name": "On or near St George's Road"
      },
      "longitude": "-2.083579"
    },
    "context": "",
    "outcome_status": null,
    "persistent_id": "",
    "id": 90277592,
    "location_subtype": "",
    "month": "2021-02"
  },
  {
    "category": "anti-social-behaviour",
    "location_type": "Force",
    "location": {
      "latitude": "51.907796",
      "street": {
        "id": 708460,
        "name": "On or near Montreal Drive"
      },
      "longitude": "-2.111330"
    },
    "context": "",
    "outcome_status": null,
    "persistent_id": "",
    "id": 90277591,
    "location_subtype": "",
    "month": "2021-02"
  },
  {
    "category": "anti-social-behaviour",
    "location_type": "Force",
    "location": {
      "latitude": "51.904298",
      "street": {
        "id": 708587,
        "name": "On or near Normal Terrace"
      },
      "longitude": "-2.079504"
    },
    "context": "",
    "outcome_status": null,
    "persistent_id": "",
    "id": 90279192,
    "location_subtype": "",
    "month": "2021-02"
  },
  {
    "category": "anti-social-behaviour",
    "location_type": "Force",
    "location": {
      "latitude": "51.897667",
      "street": {
        "id": 708113,
        "name": "On or near Monks Croft"
      },
      "longitude": "-2.117162"
    },
    "context": "",
    "outcome_status": null,
    "persistent_id": "",
    "id": 90279596,
    "location_subtype": "",
    "month": "2021-02"
  },
  {
    "category": "anti-social-behaviour",
    "location_type": "Force",
    "location": {
      "latitude": "51.902006",
      "street": {
        "id": 708085,
        "name": "On or near Britten Place"
      },
      "longitude": "-2.111505"
    },
    "context": "",
    "outcome_status": null,
    "persistent_id": "",
    "id": 90279444,
    "location_subtype": "",
    "month": "2021-02"
  },
  {
    "category": "anti-social-behaviour",
    "location_type": "Force",
    "location": {
      "latitude": "51.903177",
      "street": {
        "id": 707911,
        "name": "On or near Amos Close"
      },
      "longitude": "-2.088281"
    },
    "context": "",
    "outcome_status": null,
    "persistent_id": "",
    "id": 90279447,
    "location_subtype": "",
    "month": "2021-02"
  },
  {
    "category": "anti-social-behaviour",
    "location_type": "Force",
    "location": {
      "latitude": "51.902001",
      "street": {
        "id": 708090,
        "name": "On or near Hospital"
      },
      "longitude": "-2.116984"
    },
    "context": "",
    "outcome_status": null,
    "persistent_id": "",
    "id": 90279448,
    "location_subtype": "",
    "month": "2021-02"
  },
  {
    "category": "anti-social-behaviour",
    "location_type": "Force",
    "location": {
      "latitude": "51.903067",
      "street": {
        "id": 707905,
        "name": "On or near High Street"
      },
      "longitude": "-2.079022"
    },
    "context": "",
    "outcome_status": null,
    "persistent_id": "",
    "id": 90279439,
    "location_subtype": "",
    "month": "2021-02"
  },
  {
    "category": "anti-social-behaviour",
    "location_type": "Force",
    "location": {
      "latitude": "51.904091",
      "street": {
        "id": 708576,
        "name": "On or near St Paul's Street South"
      },
      "longitude": "-2.079184"
    },
    "context": "",
    "outcome_status": null,
    "persistent_id": "",
    "id": 90279430,
    "location_subtype": "",
    "month": "2021-02"
  },
  {
    "category": "anti-social-behaviour",
    "location_type": "Force",
    "location": {
      "latitude": "51.894684",
      "street": {
        "id": 708161,
        "name": "On or near Petrol Station"
      },
      "longitude": "-2.105383"
    },
    "context": "",
    "outcome_status": null,
    "persistent_id": "",
    "id": 90279391,
    "location_subtype": "",
    "month": "2021-02"
  },
  {
    "category": "anti-social-behaviour",
    "location_type": "Force",
    "location": {
      "latitude": "51.904869",
      "street": {
        "id": 708626,
        "name": "On or near Bloomsbury Street"
      },
      "longitude": "-2.085959"
    },
    "context": "",
    "outcome_status": null,
    "persistent_id": "",
    "id": 90279129,
    "location_subtype": "",
    "month": "2021-02"
  },
  {
    "category": "anti-social-behaviour",
    "location_type": "Force",
    "location": {
      "latitude": "51.914341",
      "street": {
        "id": 708398,
        "name": "On or near Riverview Way"
      },
      "longitude": "-2.102652"
    },
    "context": "",
    "outcome_status": null,
    "persistent_id": "",
    "id": 90279126,
    "location_subtype": "",
    "month": "2021-02"
  },
  {
    "category": "anti-social-behaviour",
    "location_type": "Force",
    "location": {
      "latitude": "51.902001",
      "street": {
        "id": 708090,
        "name": "On or near Hospital"
      },
      "longitude": "-2.116984"
    },
    "context": "",
    "outcome_status": null,
    "persistent_id": "",
    "id": 90279114,
    "location_subtype": "",
    "month": "2021-02"
  },
  {
    "category": "anti-social-behaviour",
    "location_type": "Force",
    "location": {
      "latitude": "51.903595",
      "street": {
        "id": 708431,
        "name": "On or near Anapa Mews"
      },
      "longitude": "-2.114270"
    },
    "context": "",
    "outcome_status": null,
    "persistent_id": "",
    "id": 90279509,
    "location_subtype": "",
    "month": "2021-02"
  },
  {
    "category": "anti-social-behaviour",
    "location_type": "Force",
    "location": {
      "latitude": "51.911194",
      "street": {
        "id": 708465,
        "name": "On or near Lipson Road"
      },
      "longitude": "-2.112240"
    },
    "context": "",
    "outcome_status": null,
    "persistent_id": "",
    "id": 90279468,
    "location_subtype": "",
    "month": "2021-02"
  },
  {
    "category": "anti-social-behaviour",
    "location_type": "Force",
    "location": {
      "latitude": "51.914793",
      "street": {
        "id": 708419,
        "name": "On or near Shopping Area"
      },
      "longitude": "-2.099557"
    },
    "context": "",
    "outcome_status": null,
    "persistent_id": "",
    "id": 90279095,
    "location_subtype": "",
    "month": "2021-02"
  },
  {
    "category": "anti-social-behaviour",
    "location_type": "Force",
    "location": {
      "latitude": "51.904227",
      "street": {
        "id": 708579,
        "name": "On or near Scholars Court"
      },
      "longitude": "-2.090638"
    },
    "context": "",
    "outcome_status": null,
    "persistent_id": "",
    "id": 90279058,
    "location_subtype": "",
    "month": "2021-02"
  },
  {
    "category": "anti-social-behaviour",
    "location_type": "Force",
    "location": {
      "latitude": "51.902015",
      "street": {
        "id": 707896,
        "name": "On or near Queen's Retreat"
      },
      "longitude": "-2.090270"
    },
    "context": "",
    "outcome_status": null,
    "persistent_id": "",
    "id": 90279031,
    "location_subtype": "",
    "month": "2021-02"
  },
  {
    "category": "anti-social-behaviour",
    "location_type": "Force",
    "location": {
      "latitude": "51.904869",
      "street": {
        "id": 708626,
        "name": "On or near Bloomsbury Street"
      },
      "longitude": "-2.085959"
    },
    "context": "",
    "outcome_status": null,
    "persistent_id": "",
    "id": 90279029,
    "location_subtype": "",
    "month": "2021-02"
  },
  {
    "category": "anti-social-behaviour",
    "location_type": "Force",
    "location": {
      "latitude": "51.889925",
      "street": {
        "id": 707141,
        "name": "On or near Warden Hill Road"
      },
      "longitude": "-2.099240"
    },
    "context": "",
    "outcome_status": null,
    "persistent_id": "",
    "id": 90279018,
    "location_subtype": "",
    "month": "2021-02"
  },
  {
    "category": "anti-social-behaviour",
    "location_type": "Force",
    "location": {
      "latitude": "51.901613",
      "street": {
        "id": 707903,
        "name": "On or near Honeybourne Way"
      },
      "longitude": "-2.086999"
    },
    "context": "",
    "outcome_status": null,
    "persistent_id": "",
    "id": 90279012,
    "location_subtype": "",
    "month": "2021-02"
  },
  {
    "category": "anti-social-behaviour",
    "location_type": "Force",
    "location": {
      "latitude": "51.897667",
      "street": {
        "id": 708113,
        "name": "On or near Monks Croft"
      },
      "longitude": "-2.117162"
    },
    "context": "",
    "outcome_status": null,
    "persistent_id": "",
    "id": 90278996,
    "location_subtype": "",
    "month": "2021-02"
  },
  {
    "category": "anti-social-behaviour",
    "location_type": "Force",
    "location": {
      "latitude": "51.907796",
      "street": {
        "id": 708460,
        "name": "On or near Montreal Drive"
      },
      "longitude": "-2.111330"
    },
    "context": "",
    "outcome_status": null,
    "persistent_id": "",
    "id": 90279330,
    "location_subtype": "",
    "month": "2021-02"
  },
  {
    "category": "anti-social-behaviour",
    "location_type": "Force",
    "location": {
      "latitude": "51.900216",
      "street": {
        "id": 708017,
        "name": "On or near Conference/exhibition Centre"
      },
      "longitude": "-2.080282"
    },
    "context": "",
    "outcome_status": null,
    "persistent_id": "",
    "id": 90279331,
    "location_subtype": "",
    "month": "2021-02"
  },
  {
    "category": "anti-social-behaviour",
    "location_type": "Force",
    "location": {
      "latitude": "51.894985",
      "street": {
        "id": 707981,
        "name": "On or near Lansdown Parade"
      },
      "longitude": "-2.090212"
    },
    "context": "",
    "outcome_status": null,
    "persistent_id": "",
    "id": 90279332,
    "location_subtype": "",
    "month": "2021-02"
  },
  {
    "category": "anti-social-behaviour",
    "location_type": "Force",
    "location": {
      "latitude": "51.895490",
      "street": {
        "id": 707982,
        "name": "On or near Lansdown Crescent"
      },
      "longitude": "-2.087307"
    },
    "context": "",
    "outcome_status": null,
    "persistent_id": "",
    "id": 90279333,
    "location_subtype": "",
    "month": "2021-02"
  },
  {
    "category": "anti-social-behaviour",
    "location_type": "Force",
    "location": {
      "latitude": "51.902428",
      "street": {
        "id": 707912,
        "name": "On or near Ambrose Street"
      },
      "longitude": "-2.079544"
    },
    "context": "",
    "outcome_status": null,
    "persistent_id": "",
    "id": 90279335,
    "location_subtype": "",
    "month": "2021-02"
  },
  {
    "category": "anti-social-behaviour",
    "location_type": "Force",
    "location": {
      "latitude": "51.897667",
      "street": {
        "id": 708113,
        "name": "On or near Monks Croft"
      },
      "longitude": "-2.117162"
    },
    "context": "",
    "outcome_status": null,
    "persistent_id": "",
    "id": 90279323,
    "location_subtype": "",
    "month": "2021-02"
  },
  {
    "category": "anti-social-behaviour",
    "location_type": "Force",
    "location": {
      "latitude": "51.892072",
      "street": {
        "id": 707983,
        "name": "On or near Inkerman Lane"
      },
      "longitude": "-2.089582"
    },
    "context": "",
    "outcome_status": null,
    "persistent_id": "",
    "id": 90279284,
    "location_subtype": "",
    "month": "2021-02"
  },
  {
    "category": "anti-social-behaviour",
    "location_type": "Force",
    "location": {
      "latitude": "51.909356",
      "street": {
        "id": 708482,
        "name": "On or near Brown Close"
      },
      "longitude": "-2.116277"
    },
    "context": "",
    "outcome_status": null,
    "persistent_id": "",
    "id": 90278895,
    "location_subtype": "",
    "month": "2021-02"
  },
  {
    "category": "anti-social-behaviour",
    "location_type": "Force",
    "location": {
      "latitude": "51.909841",
      "street": {
        "id": 708590,
        "name": "On or near Midwinter Avenue"
      },
      "longitude": "-2.085401"
    },
    "context": "",
    "outcome_status": null,
    "persistent_id": "",
    "id": 90278888,
    "location_subtype": "",
    "month": "2021-02"
  },
  {
    "category": "anti-social-behaviour",
    "location_type": "Force",
    "location": {
      "latitude": "51.909528",
      "street": {
        "id": 708446,
        "name": "On or near Pennsylvania Avenue"
      },
      "longitude": "-2.105578"
    },
    "context": "",
    "outcome_status": null,
    "persistent_id": "",
    "id": 90278864,
    "location_subtype": "",
    "month": "2021-02"
  },
  {
    "category": "anti-social-behaviour",
    "location_type": "Force",
    "location": {
      "latitude": "51.906710",
      "street": {
        "id": 708355,
        "name": "On or near Graham Place"
      },
      "longitude": "-2.119482"
    },
    "context": "",
    "outcome_status": null,
    "persistent_id": "",
    "id": 90278838,
    "location_subtype": "",
    "month": "2021-02"
  },
  {
    "category": "anti-social-behaviour",
    "location_type": "Force",
    "location": {
      "latitude": "51.905540",
      "street": {
        "id": 708361,
        "name": "On or near Beale Road"
      },
      "longitude": "-2.120438"
    },
    "context": "",
    "outcome_status": null,
    "persistent_id": "",
    "id": 90278847,
    "location_subtype": "",
    "month": "2021-02"
  },
  {
    "category": "anti-social-behaviour",
    "location_type": "Force",
    "location": {
      "latitude": "51.907308",
      "street": {
        "id": 708622,
        "name": "On or near Carlton Place"
      },
      "longitude": "-2.082867"
    },
    "context": "",
    "outcome_status": null,
    "persistent_id": "",
    "id": 90278834,
    "location_subtype": "",
    "month": "2021-02"
  },
  {
    "category": "anti-social-behaviour",
    "location_type": "Force",
    "location": {
      "latitude": "51.907796",
      "street": {
        "id": 708460,
        "name": "On or near Montreal Drive"
      },
      "longitude": "-2.111330"
    },
    "context": "",
    "outcome_status": null,
    "persistent_id": "",
    "id": 90278830,
    "location_subtype": "",
    "month": "2021-02"
  },
  {
    "category": "anti-social-behaviour",
    "location_type": "Force",
    "location": {
      "latitude": "51.905796",
      "street": {
        "id": 708557,
        "name": "On or near White Hart Street"
      },
      "longitude": "-2.084304"
    },
    "context": "",
    "outcome_status": null,
    "persistent_id": "",
    "id": 90279079,
    "location_subtype": "",
    "month": "2021-02"
  },
  {
    "category": "anti-social-behaviour",
    "location_type": "Force",
    "location": {
      "latitude": "51.894908",
      "street": {
        "id": 707945,
        "name": "On or near Skillicorne Mews"
      },
      "longitude": "-2.095851"
    },
    "context": "",
    "outcome_status": null,
    "persistent_id": "",
    "id": 90279083,
    "location_subtype": "",
    "month": "2021-02"
  },
  {
    "category": "anti-social-behaviour",
    "location_type": "Force",
    "location": {
      "latitude": "51.910204",
      "street": {
        "id": 708473,
        "name": "On or near Grevil Road"
      },
      "longitude": "-2.103195"
    },
    "context": "",
    "outcome_status": null,
    "persistent_id": "",
    "id": 90278811,
    "location_subtype": "",
    "month": "2021-02"
  },
  {
    "category": "anti-social-behaviour",
    "location_type": "Force",
    "location": {
      "latitude": "51.914642",
      "street": {
        "id": 708512,
        "name": "On or near Midwinter Gardens"
      },
      "longitude": "-2.085381"
    },
    "context": "",
    "outcome_status": null,
    "persistent_id": "",
    "id": 90278780,
    "location_subtype": "",
    "month": "2021-02"
  },
  {
    "category": "anti-social-behaviour",
    "location_type": "Force",
    "location": {
      "latitude": "51.907670",
      "street": {
        "id": 708461,
        "name": "On or near Merriville Road"
      },
      "longitude": "-2.102477"
    },
    "context": "",
    "outcome_status": null,
    "persistent_id": "",
    "id": 90278771,
    "location_subtype": "",
    "month": "2021-02"
  },
  {
    "category": "anti-social-behaviour",
    "location_type": "Force",
    "location": {
      "latitude": "51.897378",
      "street": {
        "id": 708167,
        "name": "On or near Queen's Road"
      },
      "longitude": "-2.098850"
    },
    "context": "",
    "outcome_status": null,
    "persistent_id": "",
    "id": 90278646,
    "location_subtype": "",
    "month": "2021-02"
  },
  {
    "category": "anti-social-behaviour",
    "location_type": "Force",
    "location": {
      "latitude": "51.904697",
      "street": {
        "id": 708420,
        "name": "On or near Bryanstone Close"
      },
      "longitude": "-2.098444"
    },
    "context": "",
    "outcome_status": null,
    "persistent_id": "",
    "id": 90278615,
    "location_subtype": "",
    "month": "2021-02"
  },
  {
    "category": "anti-social-behaviour",
    "location_type": "Force",
    "location": {
      "latitude": "51.893286",
      "street": {
        "id": 708144,
        "name": "On or near Draycot Road"
      },
      "longitude": "-2.110902"
    },
    "context": "",
    "outcome_status": null,
    "persistent_id": "",
    "id": 90278555,
    "location_subtype": "",
    "month": "2021-02"
  },
  {
    "category": "anti-social-behaviour",
    "location_type": "Force",
    "location": {
      "latitude": "51.918041",
      "street": {
        "id": 700925,
        "name": "On or near Supermarket"
      },
      "longitude": "-2.106761"
    },
    "context": "",
    "outcome_status": null,
    "persistent_id": "",
    "id": 90278553,
    "location_subtype": "",
    "month": "2021-02"
  },
  {
    "category": "anti-social-behaviour",
    "location_type": "Force",
    "location": {
      "latitude": "51.896435",
      "street": {
        "id": 700957,
        "name": "On or near Lansdown Terrace Lane"
      },
      "longitude": "-2.086248"
    },
    "context": "",
    "outcome_status": null,
    "persistent_id": "",
    "id": 90278475,
    "location_subtype": "",
    "month": "2021-02"
  },
  {
    "category": "anti-social-behaviour",
    "location_type": "Force",
    "location": {
      "latitude": "51.907796",
      "street": {
        "id": 708460,
        "name": "On or near Montreal Drive"
      },
      "longitude": "-2.111330"
    },
    "context": "",
    "outcome_status": null,
    "persistent_id": "",
    "id": 90278454,
    "location_subtype": "",
    "month": "2021-02"
  },
  {
    "category": "anti-social-behaviour",
    "location_type": "Force",
    "location": {
      "latitude": "51.899151",
      "street": {
        "id": 708162,
        "name": "On or near Stow Court"
      },
      "longitude": "-2.097473"
    },
    "context": "",
    "outcome_status": null,
    "persistent_id": "",
    "id": 90278676,
    "location_subtype": "",
    "month": "2021-02"
  },
  {
    "category": "anti-social-behaviour",
    "location_type": "Force",
    "location": {
      "latitude": "51.902001",
      "street": {
        "id": 708090,
        "name": "On or near Hospital"
      },
      "longitude": "-2.116984"
    },
    "context": "",
    "outcome_status": null,
    "persistent_id": "",
    "id": 90278535,
    "location_subtype": "",
    "month": "2021-02"
  },
  {
    "category": "anti-social-behaviour",
    "location_type": "Force",
    "location": {
      "latitude": "51.907849",
      "street": {
        "id": 708467,
        "name": "On or near Lechmere Road"
      },
      "longitude": "-2.113118"
    },
    "context": "",
    "outcome_status": null,
    "persistent_id": "",
    "id": 90277977,
    "location_subtype": "",
    "month": "2021-02"
  },
  {
    "category": "anti-social-behaviour",
    "location_type": "Force",
    "location": {
      "latitude": "51.909947",
      "street": {
        "id": 708359,
        "name": "On or near Beaumont Road"
      },
      "longitude": "-2.118604"
    },
    "context": "",
    "outcome_status": null,
    "persistent_id": "",
    "id": 90278062,
    "location_subtype": "",
    "month": "2021-02"
  },
  {
    "category": "anti-social-behaviour",
    "location_type": "Force",
    "location": {
      "latitude": "51.914420",
      "street": {
        "id": 708411,
        "name": "On or near Carter Road"
      },
      "longitude": "-2.104339"
    },
    "context": "",
    "outcome_status": null,
    "persistent_id": "",
    "id": 90278037,
    "location_subtype": "",
    "month": "2021-02"
  },
  {
    "category": "anti-social-behaviour",
    "location_type": "Force",
    "location": {
      "latitude": "51.909768",
      "street": {
        "id": 708623,
        "name": "On or near Bullingham Court"
      },
      "longitude": "-2.086695"
    },
    "context": "",
    "outcome_status": null,
    "persistent_id": "",
    "id": 90278043,
    "location_subtype": "",
    "month": "2021-02"
  },
  {
    "category": "anti-social-behaviour",
    "location_type": "Force",
    "location": {
      "latitude": "51.908509",
      "street": {
        "id": 708351,
        "name": "On or near Hester's Way Road"
      },
      "longitude": "-2.118179"
    },
    "context": "",
    "outcome_status": null,
    "persistent_id": "",
    "id": 90278047,
    "location_subtype": "",
    "month": "2021-02"
  },
  {
    "category": "anti-social-behaviour",
    "location_type": "Force",
    "location": {
      "latitude": "51.907724",
      "street": {
        "id": 708561,
        "name": "On or near Victoria Street"
      },
      "longitude": "-2.079350"
    },
    "context": "",
    "outcome_status": null,
    "persistent_id": "",
    "id": 90278048,
    "location_subtype": "",
    "month": "2021-02"
  },
  {
    "category": "anti-social-behaviour",
    "location_type": "Force",
    "location": {
      "latitude": "51.914420",
      "street": {
        "id": 708411,
        "name": "On or near Carter Road"
      },
      "longitude": "-2.104339"
    },
    "context": "",
    "outcome_status": null,
    "persistent_id": "",
    "id": 90278049,
    "location_subtype": "",
    "month": "2021-02"
  },
  {
    "category": "bicycle-theft",
    "location_type": "Force",
    "location": {
      "latitude": "51.903343",
      "street": {
        "id": 707916,
        "name": "On or near Alstone Croft"
      },
      "longitude": "-2.094212"
    },
    "context": "",
    "outcome_status": {
      "category": "Investigation complete; no suspect identified",
      "date": "2021-02"
    },
    "persistent_id": "c0ba6c275ff9844479ecd6f26cfbd43b61ffc1e26506f26c124d96fa10580c94",
    "id": 90275002,
    "location_subtype": "",
    "month": "2021-02"
  },
  {
    "category": "bicycle-theft",
    "location_type": "Force",
    "location": {
      "latitude": "51.899151",
      "street": {
        "id": 708162,
        "name": "On or near Stow Court"
      },
      "longitude": "-2.097473"
    },
    "context": "",
    "outcome_status": {
      "category": "Under investigation",
      "date": "2021-02"
    },
    "persistent_id": "fa14421f87e49b0340598b6753722543c9667acb2e6ce863eaebe94bd37f2e34",
    "id": 90276279,
    "location_subtype": "",
    "month": "2021-02"
  },
  {
    "category": "bicycle-theft",
    "location_type": "Force",
    "location": {
      "latitude": "51.894251",
      "street": {
        "id": 708105,
        "name": "On or near Sheepscombe Close"
      },
      "longitude": "-2.116746"
    },
    "context": "",
    "outcome_status": {
      "category": "Unable to prosecute suspect",
      "date": "2021-02"
    },
    "persistent_id": "60fe40f33d152f3cb215fa4b112d68e51cb5d31de739412bc2f85434b9744ab7",
    "id": 90274650,
    "location_subtype": "",
    "month": "2021-02"
  },
  {
    "category": "bicycle-theft",
    "location_type": "Force",
    "location": {
      "latitude": "51.899151",
      "street": {
        "id": 708162,
        "name": "On or near Stow Court"
      },
      "longitude": "-2.097473"
    },
    "context": "",
    "outcome_status": {
      "category": "Investigation complete; no suspect identified",
      "date": "2021-02"
    },
    "persistent_id": "1191acd566cdcbe1591fcc57985f0a52fd60080817006c1bdc7f0dd2346b43e4",
    "id": 90274972,
    "location_subtype": "",
    "month": "2021-02"
  },
  {
    "category": "bicycle-theft",
    "location_type": "Force",
    "location": {
      "latitude": "51.909528",
      "street": {
        "id": 708446,
        "name": "On or near Pennsylvania Avenue"
      },
      "longitude": "-2.105578"
    },
    "context": "",
    "outcome_status": {
      "category": "Investigation complete; no suspect identified",
      "date": "2021-02"
    },
    "persistent_id": "8dde09e40d91f1512dd21de7a26c0d91c1b53945ee5619581d866a024fae721a",
    "id": 90276164,
    "location_subtype": "",
    "month": "2021-02"
  },
  {
    "category": "bicycle-theft",
    "location_type": "Force",
    "location": {
      "latitude": "51.903490",
      "street": {
        "id": 708067,
        "name": "On or near Somerset Avenue"
      },
      "longitude": "-2.101639"
    },
    "context": "",
    "outcome_status": {
      "category": "Investigation complete; no suspect identified",
      "date": "2021-02"
    },
    "persistent_id": "d08315a2e62f1a56b1b6ca917c8d8987d9101691c0d8c6ed61111e8226bf161c",
    "id": 90274683,
    "location_subtype": "",
    "month": "2021-02"
  },
  {
    "category": "burglary",
    "location_type": "Force",
    "location": {
      "latitude": "51.901877",
      "street": {
        "id": 708180,
        "name": "On or near Kempton Grove"
      },
      "longitude": "-2.124149"
    },
    "context": "",
    "outcome_status": {
      "category": "Investigation complete; no suspect identified",
      "date": "2021-02"
    },
    "persistent_id": "cac462e4a6b73bcc1e5d1a4bf259ee8c3c34003915ee388c32ea5b8a8138e9b1",
    "id": 90276497,
    "location_subtype": "",
    "month": "2021-02"
  },
  {
    "category": "burglary",
    "location_type": "Force",
    "location": {
      "latitude": "51.899411",
      "street": {
        "id": 708153,
        "name": "On or near Byron Road"
      },
      "longitude": "-2.108243"
    },
    "context": "",
    "outcome_status": {
      "category": "Investigation complete; no suspect identified",
      "date": "2021-02"
    },
    "persistent_id": "22d4ce8c3cde119161e245681a12ab6f83d9486fde6057b6865a0c493ded31d5",
    "id": 90275991,
    "location_subtype": "",
    "month": "2021-02"
  },
  {
    "category": "burglary",
    "location_type": "Force",
    "location": {
      "latitude": "51.901613",
      "street": {
        "id": 707903,
        "name": "On or near Honeybourne Way"
      },
      "longitude": "-2.086999"
    },
    "context": "",
    "outcome_status": {
      "category": "Under investigation",
      "date": "2021-02"
    },
    "persistent_id": "ddfcac339cdfe8f756ed92845b505f09fbe496f53c653215c45c54b46273ad35",
    "id": 90277436,
    "location_subtype": "",
    "month": "2021-02"
  },
  {
    "category": "burglary",
    "location_type": "Force",
    "location": {
      "latitude": "51.902453",
      "street": {
        "id": 708179,
        "name": "On or near Peacock Close"
      },
      "longitude": "-2.123221"
    },
    "context": "",
    "outcome_status": {
      "category": "Investigation complete; no suspect identified",
      "date": "2021-02"
    },
    "persistent_id": "38a5f40d186edafef0b83d69de56292e4afd2c37aa6064c59d48117ac4a0adbc",
    "id": 90275815,
    "location_subtype": "",
    "month": "2021-02"
  },
  {
    "category": "burglary",
    "location_type": "Force",
    "location": {
      "latitude": "51.904081",
      "street": {
        "id": 708604,
        "name": "On or near High Street"
      },
      "longitude": "-2.081553"
    },
    "context": "",
    "outcome_status": {
      "category": "Under investigation",
      "date": "2021-02"
    },
    "persistent_id": "166ec3bc8c60c101e59d7d5102b8a0fbd26d9651d6237b75189a8bda3ba58bec",
    "id": 90276347,
    "location_subtype": "",
    "month": "2021-02"
  },
  {
    "category": "burglary",
    "location_type": "Force",
    "location": {
      "latitude": "51.905796",
      "street": {
        "id": 708557,
        "name": "On or near White Hart Street"
      },
      "longitude": "-2.084304"
    },
    "context": "",
    "outcome_status": {
      "category": "Unable to prosecute suspect",
      "date": "2021-02"
    },
    "persistent_id": "e71e6db3a069b9835a6812678d3bb703d78518bac7977e1b64bcd247a335a9c6",
    "id": 90275570,
    "location_subtype": "",
    "month": "2021-02"
  },
  {
    "category": "burglary",
    "location_type": "Force",
    "location": {
      "latitude": "51.898863",
      "street": {
        "id": 708146,
        "name": "On or near Cowper Road"
      },
      "longitude": "-2.117412"
    },
    "context": "",
    "outcome_status": {
      "category": "Investigation complete; no suspect identified",
      "date": "2021-02"
    },
    "persistent_id": "5382f5c8608a6e69cbe1a8c4f63a205a09057dc42df61dd5be47a189aa85c335",
    "id": 90276122,
    "location_subtype": "",
    "month": "2021-02"
  },
  {
    "category": "burglary",
    "location_type": "Force",
    "location": {
      "latitude": "51.911262",
      "street": {
        "id": 708424,
        "name": "On or near St Peter's Square"
      },
      "longitude": "-2.097063"
    },
    "context": "",
    "outcome_status": {
      "category": "Investigation complete; no suspect identified",
      "date": "2021-02"
    },
    "persistent_id": "45776c6fd3fd20ee47f8c866e174c9ac20ecd039c21002cf7e3d1c233cf47059",
    "id": 90276162,
    "location_subtype": "",
    "month": "2021-02"
  },
  {
    "category": "burglary",
    "location_type": "Force",
    "location": {
      "latitude": "51.906081",
      "street": {
        "id": 708423,
        "name": "On or near Arle Drive"
      },
      "longitude": "-2.099232"
    },
    "context": "",
    "outcome_status": {
      "category": "Under investigation",
      "date": "2021-02"
    },
    "persistent_id": "fc2e64b506f28762e9c7075949b71c2e5ca92ff99d0e7c8f6cd1c2c0478fb848",
    "id": 90275866,
    "location_subtype": "",
    "month": "2021-02"
  },
  {
    "category": "burglary",
    "location_type": "Force",
    "location": {
      "latitude": "51.898274",
      "street": {
        "id": 708116,
        "name": "On or near Libertus Road"
      },
      "longitude": "-2.103066"
    },
    "context": "",
    "outcome_status": {
      "category": "Under investigation",
      "date": "2021-02"
    },
    "persistent_id": "808fe82f511aa898e744cacd542c49f36314941db6273161b817ac2e0d1267ab",
    "id": 90276576,
    "location_subtype": "",
    "month": "2021-02"
  },
  {
    "category": "burglary",
    "location_type": "Force",
    "location": {
      "latitude": "51.893750",
      "street": {
        "id": 707977,
        "name": "On or near Lansdown Road"
      },
      "longitude": "-2.093596"
    },
    "context": "",
    "outcome_status": {
      "category": "Investigation complete; no suspect identified",
      "date": "2021-02"
    },
    "persistent_id": "4e11b7d29500385b45daf80b7120c8cf234458a53a5caa505bf6fe40788da966",
    "id": 90274768,
    "location_subtype": "",
    "month": "2021-02"
  },
  {
    "category": "burglary",
    "location_type": "Force",
    "location": {
      "latitude": "51.895562",
      "street": {
        "id": 708170,
        "name": "On or near Glencairn Park Road"
      },
      "longitude": "-2.099035"
    },
    "context": "",
    "outcome_status": {
      "category": "Under investigation",
      "date": "2021-02"
    },
    "persistent_id": "a7358ce1b9d69d6fcded607a4abd94e43bae79b850c8f27ed511198495aead25",
    "id": 90275548,
    "location_subtype": "",
    "month": "2021-02"
  },
  {
    "category": "burglary",
    "location_type": "Force",
    "location": {
      "latitude": "51.895239",
      "street": {
        "id": 708110,
        "name": "On or near Oldfield Crescent"
      },
      "longitude": "-2.108146"
    },
    "context": "",
    "outcome_status": {
      "category": "Investigation complete; no suspect identified",
      "date": "2021-02"
    },
    "persistent_id": "2ff2e33bf4a1781449dd65d15419a2f63c31c721b366e2390d159e3ee7295540",
    "id": 90276662,
    "location_subtype": "",
    "month": "2021-02"
  },
  {
    "category": "burglary",
    "location_type": "Force",
    "location": {
      "latitude": "51.898864",
      "street": {
        "id": 707958,
        "name": "On or near Parabola Lane"
      },
      "longitude": "-2.083840"
    },
    "context": "",
    "outcome_status": {
      "category": "Under investigation",
      "date": "2021-02"
    },
    "persistent_id": "46106f51c6bd35433b05865ecd1ab941b11fc73457eaacfd5f439a3d6fbbf808",
    "id": 90276345,
    "location_subtype": "",
    "month": "2021-02"
  },
  {
    "category": "burglary",
    "location_type": "Force",
    "location": {
      "latitude": "51.903170",
      "street": {
        "id": 708056,
        "name": "On or near Alstone Lane"
      },
      "longitude": "-2.097075"
    },
    "context": "",
    "outcome_status": {
      "category": "Under investigation",
      "date": "2021-02"
    },
    "persistent_id": "52c6bd034a327f6c2bd8bc0fc7a857625873bad21b54b8e64d6c4e268794f89b",
    "id": 90275032,
    "location_subtype": "",
    "month": "2021-02"
  },
  {
    "category": "burglary",
    "location_type": "Force",
    "location": {
      "latitude": "51.890087",
      "street": {
        "id": 707143,
        "name": "On or near Castanum Court"
      },
      "longitude": "-2.098122"
    },
    "context": "",
    "outcome_status": {
      "category": "Under investigation",
      "date": "2021-02"
    },
    "persistent_id": "94af740c6d40d19f0468201b80495021581c3a9f5394c5f37bca1a566cf79ff9",
    "id": 90276149,
    "location_subtype": "",
    "month": "2021-02"
  },
  {
    "category": "burglary",
    "location_type": "Force",
    "location": {
      "latitude": "51.896435",
      "street": {
        "id": 700957,
        "name": "On or near Lansdown Terrace Lane"
      },
      "longitude": "-2.086248"
    },
    "context": "",
    "outcome_status": {
      "category": "Under investigation",
      "date": "2021-02"
    },
    "persistent_id": "587d105f4eb8f7f57e1e8f4f2bbbffd75dcca491e86b590f3a89ca25ca712cca",
    "id": 90275027,
    "location_subtype": "",
    "month": "2021-02"
  },
  {
    "category": "burglary",
    "location_type": "Force",
    "location": {
      "latitude": "51.909314",
      "street": {
        "id": 708486,
        "name": "On or near Brooklyn Close"
      },
      "longitude": "-2.103164"
    },
    "context": "",
    "outcome_status": {
      "category": "Investigation complete; no suspect identified",
      "date": "2021-02"
    },
    "persistent_id": "eb1345f1bf2872988fa48658643beb259e4194b33aee48c2c0612568ff0c3fe4",
    "id": 90275000,
    "location_subtype": "",
    "month": "2021-02"
  },
  {
    "category": "burglary",
    "location_type": "Force",
    "location": {
      "latitude": "51.902274",
      "street": {
        "id": 708178,
        "name": "On or near Swallowtail Close"
      },
      "longitude": "-2.122392"
    },
    "context": "",
    "outcome_status": {
      "category": "Under investigation",
      "date": "2021-02"
    },
    "persistent_id": "1874c519390b25916c84bc467532162d67d1f648f1a7f1d69329605611a21a8b",
    "id": 90276085,
    "location_subtype": "",
    "month": "2021-02"
  },
  {
    "category": "burglary",
    "location_type": "Force",
    "location": {
      "latitude": "51.898325",
      "street": {
        "id": 708125,
        "name": "On or near Hillfield"
      },
      "longitude": "-2.106264"
    },
    "context": "",
    "outcome_status": {
      "category": "Investigation complete; no suspect identified",
      "date": "2021-02"
    },
    "persistent_id": "62c61d011e91f07a1dbf928840edd401fba9c19cfcf2693fee7f0a0f5b3c3797",
    "id": 90275989,
    "location_subtype": "",
    "month": "2021-02"
  },
  {
    "category": "burglary",
    "location_type": "Force",
    "location": {
      "latitude": "51.906649",
      "street": {
        "id": 708427,
        "name": "On or near Arle Road"
      },
      "longitude": "-2.097533"
    },
    "context": "",
    "outcome_status": {
      "category": "Under investigation",
      "date": "2021-02"
    },
    "persistent_id": "594e6d397130d4c993957ce1507e361f0116b07760df01eebcd1276c5802b2c3",
    "id": 90274998,
    "location_subtype": "",
    "month": "2021-02"
  },
  {
    "category": "burglary",
    "location_type": "Force",
    "location": {
      "latitude": "51.909575",
      "street": {
        "id": 708565,
        "name": "On or near Tewkesbury Road"
      },
      "longitude": "-2.091957"
    },
    "context": "",
    "outcome_status": {
      "category": "Under investigation",
      "date": "2021-02"
    },
    "persistent_id": "2c5525584628edc53087f415099698645f902ae8f70a4aa5b10c4b39f18f5061",
    "id": 90274987,
    "location_subtype": "",
    "month": "2021-02"
  },
  {
    "category": "burglary",
    "location_type": "Force",
    "location": {
      "latitude": "51.895464",
      "street": {
        "id": 708155,
        "name": "On or near Benhall Avenue"
      },
      "longitude": "-2.117287"
    },
    "context": "",
    "outcome_status": {
      "category": "Investigation complete; no suspect identified",
      "date": "2021-02"
    },
    "persistent_id": "66bed87439f525024a87e28d7342aa47fbba8c4152d08811f2bdc7fe94b21a9e",
    "id": 90275838,
    "location_subtype": "",
    "month": "2021-02"
  },
  {
    "category": "burglary",
    "location_type": "Force",
    "location": {
      "latitude": "51.904697",
      "street": {
        "id": 708420,
        "name": "On or near Bryanstone Close"
      },
      "longitude": "-2.098444"
    },
    "context": "",
    "outcome_status": {
      "category": "Under investigation",
      "date": "2021-02"
    },
    "persistent_id": "32ac01f70b6e53de9a2fa83772c414ac7a822737762c801b030abee31672ddc0",
    "id": 90276142,
    "location_subtype": "",
    "month": "2021-02"
  },
  {
    "category": "burglary",
    "location_type": "Force",
    "location": {
      "latitude": "51.910732",
      "street": {
        "id": 700939,
        "name": "On or near Dormer Road"
      },
      "longitude": "-2.106613"
    },
    "context": "",
    "outcome_status": {
      "category": "Under investigation",
      "date": "2021-02"
    },
    "persistent_id": "b693ded7b9c04a12d82ca334c9ac08ebcc799a21d3289c7bffeef6c95d71aa15",
    "id": 90275062,
    "location_subtype": "",
    "month": "2021-02"
  },
  {
    "category": "burglary",
    "location_type": "Force",
    "location": {
      "latitude": "51.893899",
      "street": {
        "id": 708133,
        "name": "On or near Granley Road"
      },
      "longitude": "-2.108549"
    },
    "context": "",
    "outcome_status": {
      "category": "Under investigation",
      "date": "2021-02"
    },
    "persistent_id": "dea70839bac0adf3d4c0e1dddf3de849fef67efc76464158c2186a253174d8a5",
    "id": 90275066,
    "location_subtype": "",
    "month": "2021-02"
  },
  {
    "category": "burglary",
    "location_type": "Force",
    "location": {
      "latitude": "51.906488",
      "street": {
        "id": 708562,
        "name": "On or near Townsend Street"
      },
      "longitude": "-2.084407"
    },
    "context": "",
    "outcome_status": {
      "category": "Investigation complete; no suspect identified",
      "date": "2021-02"
    },
    "persistent_id": "8573208466ea1393847f22a6cff653080734d2907f1b47c58db077c7dbb24566",
    "id": 90276176,
    "location_subtype": "",
    "month": "2021-02"
  },
  {
    "category": "burglary",
    "location_type": "Force",
    "location": {
      "latitude": "51.902534",
      "street": {
        "id": 708077,
        "name": "On or near Evington Road"
      },
      "longitude": "-2.114776"
    },
    "context": "",
    "outcome_status": {
      "category": "Under investigation",
      "date": "2021-02"
    },
    "persistent_id": "cb4c326529159c2bfa0e5c3dfff0c2bcd39e7f2e936975c2eab4e07bb74e80a8",
    "id": 90276478,
    "location_subtype": "",
    "month": "2021-02"
  },
  {
    "category": "burglary",
    "location_type": "Force",
    "location": {
      "latitude": "51.898214",
      "street": {
        "id": 708012,
        "name": "On or near Sports/recreation Area"
      },
      "longitude": "-2.088359"
    },
    "context": "",
    "outcome_status": {
      "category": "Under investigation",
      "date": "2021-02"
    },
    "persistent_id": "f69c9abad3285cd83430045cebb740884f1a9297bc3abfa7b034f37ff2874cbe",
    "id": 90275069,
    "location_subtype": "",
    "month": "2021-02"
  },
  {
    "category": "burglary",
    "location_type": "Force",
    "location": {
      "latitude": "51.890265",
      "street": {
        "id": 707130,
        "name": "On or near Godfrey Close"
      },
      "longitude": "-2.100825"
    },
    "context": "",
    "outcome_status": {
      "category": "Investigation complete; no suspect identified",
      "date": "2021-02"
    },
    "persistent_id": "6df1e5d0b6084a11586384e581ecf963462fed09a7f861d6898c4425cf2ebe0b",
    "id": 90275748,
    "location_subtype": "",
    "month": "2021-02"
  },
  {
    "category": "burglary",
    "location_type": "Force",
    "location": {
      "latitude": "51.896435",
      "street": {
        "id": 700957,
        "name": "On or near Lansdown Terrace Lane"
      },
      "longitude": "-2.086248"
    },
    "context": "",
    "outcome_status": {
      "category": "Investigation complete; no suspect identified",
      "date": "2021-02"
    },
    "persistent_id": "7995781d8bd8cfc695d52cc6b6be726d44b366825af1326b2f4347f7f7f788b5",
    "id": 90276411,
    "location_subtype": "",
    "month": "2021-02"
  },
  {
    "category": "burglary",
    "location_type": "Force",
    "location": {
      "latitude": "51.900991",
      "street": {
        "id": 708069,
        "name": "On or near Rowanfield Road"
      },
      "longitude": "-2.100645"
    },
    "context": "",
    "outcome_status": {
      "category": "Under investigation",
      "date": "2021-02"
    },
    "persistent_id": "fdd50f1af8f7db868a8c41b3c2212de3f8df3f8fd30180942c571b19cb23ea73",
    "id": 90276030,
    "location_subtype": "",
    "month": "2021-02"
  },
  {
    "category": "burglary",
    "location_type": "Force",
    "location": {
      "latitude": "51.900090",
      "street": {
        "id": 708157,
        "name": "On or near Ashtree Mews"
      },
      "longitude": "-2.102649"
    },
    "context": "",
    "outcome_status": {
      "category": "Under investigation",
      "date": "2021-02"
    },
    "persistent_id": "b372eafd787a20311d81ba8c16791e4e4176d50f322c980400b839512c8d617d",
    "id": 90275040,
    "location_subtype": "",
    "month": "2021-02"
  },
  {
    "category": "burglary",
    "location_type": "Force",
    "location": {
      "latitude": "51.897101",
      "street": {
        "id": 708092,
        "name": "On or near Pedestrian Subway"
      },
      "longitude": "-2.117189"
    },
    "context": "",
    "outcome_status": {
      "category": "Investigation complete; no suspect identified",
      "date": "2021-02"
    },
    "persistent_id": "19f222cf3469472a738e88d2a03c5930d32ba3ec6ce53ac3fbd25f094571a65e",
    "id": 90275765,
    "location_subtype": "",
    "month": "2021-02"
  },
  {
    "category": "criminal-damage-arson",
    "location_type": "Force",
    "location": {
      "latitude": "51.909747",
      "street": {
        "id": 708613,
        "name": "On or near Elm Close"
      },
      "longitude": "-2.090954"
    },
    "context": "",
    "outcome_status": {
      "category": "Under investigation",
      "date": "2021-02"
    },
    "persistent_id": "47cc1959bcaba8ee5f558d29ec75bdbcd343c5041a6801fffbce99eb43e40c79",
    "id": 90276089,
    "location_subtype": "",
    "month": "2021-02"
  },
  {
    "category": "criminal-damage-arson",
    "location_type": "Force",
    "location": {
      "latitude": "51.895255",
      "street": {
        "id": 708140,
        "name": "On or near Glencairn Court"
      },
      "longitude": "-2.100269"
    },
    "context": "",
    "outcome_status": {
      "category": "Investigation complete; no suspect identified",
      "date": "2021-02"
    },
    "persistent_id": "1dec1115ee95ec209088d8b8d5cb1573aa5ec8ce2a8d66c82ead0759f5c8c799",
    "id": 90275078,
    "location_subtype": "",
    "month": "2021-02"
  },
  {
    "category": "criminal-damage-arson",
    "location_type": "Force",
    "location": {
      "latitude": "51.911412",
      "street": {
        "id": 708472,
        "name": "On or near Ismay Road"
      },
      "longitude": "-2.110438"
    },
    "context": "",
    "outcome_status": {
      "category": "Under investigation",
      "date": "2021-02"
    },
    "persistent_id": "bed189b4924d02c2c148ffcf5ffb4c74a1aeb46575efe4081878729add1b6d7c",
    "id": 90275026,
    "location_subtype": "",
    "month": "2021-02"
  },
  {
    "category": "criminal-damage-arson",
    "location_type": "Force",
    "location": {
      "latitude": "51.907849",
      "street": {
        "id": 708467,
        "name": "On or near Lechmere Road"
      },
      "longitude": "-2.113118"
    },
    "context": "",
    "outcome_status": {
      "category": "Unable to prosecute suspect",
      "date": "2021-02"
    },
    "persistent_id": "692431d3f2432338fa2eb685247fa95b8452f40b326337a2c0b13fcaef2cacb6",
    "id": 90275054,
    "location_subtype": "",
    "month": "2021-02"
  },
  {
    "category": "criminal-damage-arson",
    "location_type": "Force",
    "location": {
      "latitude": "51.898863",
      "street": {
        "id": 708146,
        "name": "On or near Cowper Road"
      },
      "longitude": "-2.117412"
    },
    "context": "",
    "outcome_status": {
      "category": "Under investigation",
      "date": "2021-02"
    },
    "persistent_id": "9107ce6a9451b2aa74edc6e5637575c9f10a1acd75496d329033f30b258d4c46",
    "id": 90276121,
    "location_subtype": "",
    "month": "2021-02"
  },
  {
    "category": "criminal-damage-arson",
    "location_type": "Force",
    "location": {
      "latitude": "51.909738",
      "street": {
        "id": 708497,
        "name": "On or near Sports/recreation Area"
      },
      "longitude": "-2.111393"
    },
    "context": "",
    "outcome_status": {
      "category": "Investigation complete; no suspect identified",
      "date": "2021-02"
    },
    "persistent_id": "2cc14c2b458236fe1279611e637cdc74ffd70e1286d9cbe09ad8caa8e426e82f",
    "id": 90276467,
    "location_subtype": "",
    "month": "2021-02"
  },
  {
    "category": "criminal-damage-arson",
    "location_type": "Force",
    "location": {
      "latitude": "51.909738",
      "street": {
        "id": 708497,
        "name": "On or near Sports/recreation Area"
      },
      "longitude": "-2.111393"
    },
    "context": "",
    "outcome_status": {
      "category": "Investigation complete; no suspect identified",
      "date": "2021-02"
    },
    "persistent_id": "125cfaa2e7cb2f4615784a6dc2bf05cab9bf62a2e1434e93dce7c022a2e701db",
    "id": 90276466,
    "location_subtype": "",
    "month": "2021-02"
  },
  {
    "category": "criminal-damage-arson",
    "location_type": "Force",
    "location": {
      "latitude": "51.908771",
      "street": {
        "id": 708450,
        "name": "On or near Orchard Way"
      },
      "longitude": "-2.107917"
    },
    "context": "",
    "outcome_status": {
      "category": "Unable to prosecute suspect",
      "date": "2021-02"
    },
    "persistent_id": "84547453e724f1cf5d2a82f18f9ae2592463d65c95a0757c58be2147af32ee94",
    "id": 90276195,
    "location_subtype": "",
    "month": "2021-02"
  },
  {
    "category": "criminal-damage-arson",
    "location_type": "Force",
    "location": {
      "latitude": "51.902057",
      "street": {
        "id": 708060,
        "name": "On or near Parking Area"
      },
      "longitude": "-2.114455"
    },
    "context": "",
    "outcome_status": {
      "category": "Under investigation",
      "date": "2021-02"
    },
    "persistent_id": "0d4870d1db0ba2e83b3dbef33a6d10662854323afb284b08ddd900c9197db8e5",
    "id": 90274705,
    "location_subtype": "",
    "month": "2021-02"
  },
  {
    "category": "criminal-damage-arson",
    "location_type": "Force",
    "location": {
      "latitude": "51.902057",
      "street": {
        "id": 708060,
        "name": "On or near Parking Area"
      },
      "longitude": "-2.114455"
    },
    "context": "",
    "outcome_status": {
      "category": "Under investigation",
      "date": "2021-02"
    },
    "persistent_id": "71e0d20a3ffb47bf3e14ec4db3a86b441a9663b1e466510eedf627c68d0bf700",
    "id": 90274706,
    "location_subtype": "",
    "month": "2021-02"
  },
  {
    "category": "criminal-damage-arson",
    "location_type": "Force",
    "location": {
      "latitude": "51.909528",
      "street": {
        "id": 708446,
        "name": "On or near Pennsylvania Avenue"
      },
      "longitude": "-2.105578"
    },
    "context": "",
    "outcome_status": {
      "category": "Unable to prosecute suspect",
      "date": "2021-02"
    },
    "persistent_id": "60a0f76b58ab24fa9baf2d3c9c3173683cd48b77af15279095eaee282b539fc4",
    "id": 90276157,
    "location_subtype": "",
    "month": "2021-02"
  },
  {
    "category": "criminal-damage-arson",
    "location_type": "Force",
    "location": {
      "latitude": "51.906081",
      "street": {
        "id": 708423,
        "name": "On or near Arle Drive"
      },
      "longitude": "-2.099232"
    },
    "context": "",
    "outcome_status": {
      "category": "Investigation complete; no suspect identified",
      "date": "2021-02"
    },
    "persistent_id": "0eb5f9c941be1afd0dc4f446b7ebabf767d11d5ae134adf9b63880628deeca65",
    "id": 90274633,
    "location_subtype": "",
    "month": "2021-02"
  },
  {
    "category": "criminal-damage-arson",
    "location_type": "Force",
    "location": {
      "latitude": "51.900216",
      "street": {
        "id": 708106,
        "name": "On or near Shakespeare Road"
      },
      "longitude": "-2.112154"
    },
    "context": "",
    "outcome_status": {
      "category": "Unable to prosecute suspect",
      "date": "2021-02"
    },
    "persistent_id": "806933a4cca1ebb28be17439530b53d3d2dc1ea8d7629e88cdcbb95f0cdd6035",
    "id": 90275881,
    "location_subtype": "",
    "month": "2021-02"
  },
  {
    "category": "criminal-damage-arson",
    "location_type": "Force",
    "location": {
      "latitude": "51.912053",
      "street": {
        "id": 708477,
        "name": "On or near Dunelm Close"
      },
      "longitude": "-2.107110"
    },
    "context": "",
    "outcome_status": {
      "category": "Investigation complete; no suspect identified",
      "date": "2021-02"
    },
    "persistent_id": "574431ecd644436ae9bd2e24e6038e32d163171afbc75ed1f3c0fbdb636f994e",
    "id": 90275759,
    "location_subtype": "",
    "month": "2021-02"
  },
  {
    "category": "criminal-damage-arson",
    "location_type": "Force",
    "location": {
      "latitude": "51.905050",
      "street": {
        "id": 708602,
        "name": "On or near High Street"
      },
      "longitude": "-2.083837"
    },
    "context": "",
    "outcome_status": {
      "category": "Investigation complete; no suspect identified",
      "date": "2021-02"
    },
    "persistent_id": "08d4d354e34632c288fcdd8b89a45dbfda9d15beacb3eaa3f11c94b3c101cb05",
    "id": 90274975,
    "location_subtype": "",
    "month": "2021-02"
  },
  {
    "category": "criminal-damage-arson",
    "location_type": "Force",
    "location": {
      "latitude": "51.912053",
      "street": {
        "id": 708477,
        "name": "On or near Dunelm Close"
      },
      "longitude": "-2.107110"
    },
    "context": "",
    "outcome_status": {
      "category": "Investigation complete; no suspect identified",
      "date": "2021-02"
    },
    "persistent_id": "9d7a9375de86f8055a79afb3a53fe8ce8f2a60adf9858dde545d07ffdd0eed34",
    "id": 90275760,
    "location_subtype": "",
    "month": "2021-02"
  },
  {
    "category": "criminal-damage-arson",
    "location_type": "Force",
    "location": {
      "latitude": "51.901457",
      "street": {
        "id": 708076,
        "name": "On or near Goldsmith Close"
      },
      "longitude": "-2.112797"
    },
    "context": "",
    "outcome_status": {
      "category": "Investigation complete; no suspect identified",
      "date": "2021-02"
    },
    "persistent_id": "16e54594d224ff0d5b291f50466ea1029d59ba718813d7a3c2489258866446e3",
    "id": 90274928,
    "location_subtype": "",
    "month": "2021-02"
  },
  {
    "category": "criminal-damage-arson",
    "location_type": "Force",
    "location": {
      "latitude": "51.904648",
      "street": {
        "id": 708476,
        "name": "On or near Ellison Road"
      },
      "longitude": "-2.113183"
    },
    "context": "",
    "outcome_status": {
      "category": "Investigation complete; no suspect identified",
      "date": "2021-02"
    },
    "persistent_id": "ad257d2438bdffa311fe09ecb6c309e9b3df75ef5530459e2d3a92433d9bd9ad",
    "id": 90275071,
    "location_subtype": "",
    "month": "2021-02"
  },
  {
    "category": "criminal-damage-arson",
    "location_type": "Force",
    "location": {
      "latitude": "51.904417",
      "street": {
        "id": 708480,
        "name": "On or near Cornwall Avenue"
      },
      "longitude": "-2.100624"
    },
    "context": "",
    "outcome_status": {
      "category": "Under investigation",
      "date": "2021-02"
    },
    "persistent_id": "4cf47333388f7cd3501963141c0bcdbe5bab34d9044903cac43c840165ca6c83",
    "id": 90274960,
    "location_subtype": "",
    "month": "2021-02"
  },