[
  {
    "category": "anti-social-behaviour",
    "location_type": "Force",
    "location": {
      "latitude": "51.912694",
      "street": {
        "id": 708469,
        "name": "On or near Kingsmead Close"
      },
      "longitude": "-2.104291"
    },
    "context": "",
    "outcome_status": null,
    "persistent_id": "",
    "id": 93166478,
    "location_subtype": "",
    "month": "2021-06"
  },
  {
    "category": "anti-social-behaviour",
    "location_type": "Force",
    "location": {
      "latitude": "51.907612",
      "street": {
        "id": 708634,
        "name": "On or near Sports/recreation Area"
      },
      "longitude": "-2.095791"
    },
    "context": "",
    "outcome_status": null,
    "persistent_id": "",
    "id": 93164778,
    "location_subtype": "",
    "month": "2021-06"
  },
  {
    "category": "anti-social-behaviour",
    "location_type": "Force",
    "location": {
      "latitude": "51.909747",
      "street": {
        "id": 708613,
        "name": "On or near Elm Close"
      },
      "longitude": "-2.090954"
    },
    "context": "",
    "outcome_status": null,
    "persistent_id": "",
    "id": 93164826,
    "location_subtype": "",
    "month": "2021-06"
  },
  {
    "category": "anti-social-behaviour",
    "location_type": "Force",
    "location": {
      "latitude": "51.910908",
      "street": {
        "id": 708479,
        "name": "On or near Dill Avenue"
      },
      "longitude": "-2.110800"
    },
    "context": "",
    "outcome_status": null,
    "persistent_id": "",
    "id": 93164853,
    "location_subtype": "",
    "month": "2021-06"
  },
  {
    "category": "anti-social-behaviour",
    "location_type": "Force",
    "location": {
      "latitude": "51.894878",
      "street": {
        "id": 708055,
        "name": "On or near Lansdown Crescent Lane"
      },
      "longitude": "-2.088236"
    },
    "context": "",
    "outcome_status": null,
    "persistent_id": "",
    "id": 93164856,
    "location_subtype": "",
    "month": "2021-06"
  },
  {
    "category": "anti-social-behaviour",
    "location_type": "Force",
    "location": {
      "latitude": "51.901599",
      "street": {
        "id": 707897,
        "name": "On or near Pates Avenue"
      },
      "longitude": "-2.094223"
    },
    "context": "",
    "outcome_status": null,
    "persistent_id": "",
    "id": 93164901,
    "location_subtype": "",
    "month": "2021-06"
  },
  {
    "category": "anti-social-behaviour",
    "location_type": "Force",
    "location": {
      "latitude": "51.903666",
      "street": {
        "id": 708551,
        "name": "On or near Burton Street"
      },
      "longitude": "-2.083195"
    },
    "context": "",
    "outcome_status": null,
    "persistent_id": "",
    "id": 93164909,
    "location_subtype": "",
    "month": "2021-06"
  },
  {
    "category": "anti-social-behaviour",
    "location_type": "Force",
    "location": {
      "latitude": "51.899151",
      "street": {
        "id": 708162,
        "name": "On or near Stow Court"
      },
      "longitude": "-2.097473"
    },
    "context": "",
    "outcome_status": null,
    "persistent_id": "",
    "id": 93165410,
    "location_subtype": "",
    "month": "2021-06"
  },
  {
    "category": "anti-social-behaviour",
    "location_type": "Force",
    "location": {
      "latitude": "51.905108",
      "street": {
        "id": 708350,
        "name": "On or near Hicks Beach Road"
      },
      "longitude": "-2.120277"
    },
    "context": "",
    "outcome_status": null,
    "persistent_id": "",
    "id": 93165431,
    "location_subtype": "",
    "month": "2021-06"
  },
  {
    "category": "anti-social-behaviour",
    "location_type": "Force",
    "location": {
      "latitude": "51.910204",
      "street": {
        "id": 708473,
        "name": "On or near Grevil Road"
      },
      "longitude": "-2.103195"
    },
    "context": "",
    "outcome_status": null,
    "persistent_id": "",
    "id": 93165525,
    "location_subtype": "",
    "month": "2021-06"
  },
  {
    "category": "anti-social-behaviour",
    "location_type": "Force",
    "location": {
      "latitude": "51.893393",
      "street": {
        "id": 708011,
        "name": "On or near Petrol Station"
      },
      "longitude": "-2.090267"
    },
    "context": "",
    "outcome_status": null,
    "persistent_id": "",
    "id": 93165528,
    "location_subtype": "",
    "month": "2021-06"
  },
  {
    "category": "anti-social-behaviour",
    "location_type": "Force",
    "location": {
      "latitude": "51.908518",
      "street": {
        "id": 708583,
        "name": "On or near Queen Street"
      },
      "longitude": "-2.087303"
    },
    "context": "",
    "outcome_status": null,
    "persistent_id": "",
    "id": 93165616,
    "location_subtype": "",
    "month": "2021-06"
  },
  {
    "category": "anti-social-behaviour",
    "location_type": "Force",
    "location": {
      "latitude": "51.909738",
      "street": {
        "id": 708497,
        "name": "On or near Sports/recreation Area"
      },
      "longitude": "-2.111393"
    },
    "context": "",
    "outcome_status": null,
    "persistent_id": "",
    "id": 93165622,
    "location_subtype": "",
    "month": "2021-06"
  },
  {
    "category": "anti-social-behaviour",
    "location_type": "Force",
    "location": {
      "latitude": "51.895047",
      "street": {
        "id": 708121,
        "name": "On or near Lansdown Close"
      },
      "longitude": "-2.101635"
    },
    "context": "",
    "outcome_status": null,
    "persistent_id": "",
    "id": 93165633,
    "location_subtype": "",
    "month": "2021-06"
  },
  {
    "category": "anti-social-behaviour",
    "location_type": "Force",
    "location": {
      "latitude": "51.899151",
      "street": {
        "id": 708162,
        "name": "On or near Stow Court"
      },
      "longitude": "-2.097473"
    },
    "context": "",
    "outcome_status": null,
    "persistent_id": "",
    "id": 93165649,
    "location_subtype": "",
    "month": "2021-06"
  },
  {
    "category": "anti-social-behaviour",
    "location_type": "Force",
    "location": {
      "latitude": "51.896440",
      "street": {
        "id": 708136,
        "name": "On or near Gloucester Road"
      },
      "longitude": "-2.102205"
    },
    "context": "",
    "outcome_status": null,
    "persistent_id": "",
    "id": 93165721,
    "location_subtype": "",
    "month": "2021-06"
  },
  {
    "category": "anti-social-behaviour",
    "location_type": "Force",
    "location": {
      "latitude": "51.894251",
      "street": {
        "id": 708105,
        "name": "On or near Sheepscombe Close"
      },
      "longitude": "-2.116746"
    },
    "context": "",
    "outcome_status": null,
    "persistent_id": "",
    "id": 93165732,
    "location_subtype": "",
    "month": "2021-06"
  },
  {
    "category": "anti-social-behaviour",
    "location_type": "Force",
    "location": {
      "latitude": "51.904271",
      "street": {
        "id": 708491,
        "name": "On or near Bedford Avenue"
      },
      "longitude": "-2.102789"
    },
    "context": "",
    "outcome_status": null,
    "persistent_id": "",
    "id": 93165779,
    "location_subtype": "",
    "month": "2021-06"
  },
  {
    "category": "anti-social-behaviour",
    "location_type": "Force",
    "location": {
      "latitude": "51.906046",
      "street": {
        "id": 708639,
        "name": "On or near Supermarket"
      },
      "longitude": "-2.086804"
    },
    "context": "",
    "outcome_status": null,
    "persistent_id": "",
    "id": 93165848,
    "location_subtype": "",
    "month": "2021-06"
  },
  {
    "category": "anti-social-behaviour",
    "location_type": "Force",
    "location": {
      "latitude": "51.912694",
      "street": {
        "id": 708469,
        "name": "On or near Kingsmead Close"
      },
      "longitude": "-2.104291"
    },
    "context": "",
    "outcome_status": null,
    "persistent_id": "",
    "id": 93165857,
    "location_subtype": "",
    "month": "2021-06"
  },
  {
    "category": "anti-social-behaviour",
    "location_type": "Force",
    "location": {
      "latitude": "51.913352",
      "street": {
        "id": 708471,
        "name": "On or near Joyner Road"
      },
      "longitude": "-2.102883"
    },
    "context": "",
    "outcome_status": null,
    "persistent_id": "",
    "id": 93165861,
    "location_subtype": "",
    "month": "2021-06"
  },
  {
    "category": "anti-social-behaviour",
    "location_type": "Force",
    "location": {
      "latitude": "51.910260",
      "street": {
        "id": 708615,
        "name": "On or near Compton Road"
      },
      "longitude": "-2.090199"
    },
    "context": "",
    "outcome_status": null,
    "persistent_id": "",
    "id": 93165905,
    "location_subtype": "",
    "month": "2021-06"
  },
  {
    "category": "anti-social-behaviour",
    "location_type": "Force",
    "location": {
      "latitude": "51.902798",
      "street": {
        "id": 707894,
        "name": "On or near St George's Close"
      },
      "longitude": "-2.090359"
    },
    "context": "",
    "outcome_status": null,
    "persistent_id": "",
    "id": 93165932,
    "location_subtype": "",
    "month": "2021-06"
  },
  {
    "category": "anti-social-behaviour",
    "location_type": "Force",
    "location": {
      "latitude": "51.910204",
      "street": {
        "id": 708473,
        "name": "On or near Grevil Road"
      },
      "longitude": "-2.103195"
    },
    "context": "",
    "outcome_status": null,
    "persistent_id": "",
    "id": 93166093,
    "location_subtype": "",
    "month": "2021-06"
  },
  {
    "category": "anti-social-behaviour",
    "location_type": "Force",
    "location": {
      "latitude": "51.918041",
      "street": {
        "id": 700925,
        "name": "On or near Supermarket"
      },
      "longitude": "-2.106761"
    },
    "context": "",
    "outcome_status": null,
    "persistent_id": "",
    "id": 93166134,
    "location_subtype": "",
    "month": "2021-06"
  },
  {
    "category": "anti-social-behaviour",
    "location_type": "Force",
    "location": {
      "latitude": "51.910505",
      "street": {
        "id": 708611,
        "name": "On or near Elmfield Road"
      },
      "longitude": "-2.087103"
    },
    "context": "",
    "outcome_status": null,
    "persistent_id": "",
    "id": 93166220,
    "location_subtype": "",
    "month": "2021-06"
  },
  {
    "category": "anti-social-behaviour",
    "location_type": "Force",
    "location": {
      "latitude": "51.900363",
      "street": {
        "id": 707923,
        "name": "On or near Western Road"
      },
      "longitude": "-2.088348"
    },
    "context": "",
    "outcome_status": null,
    "persistent_id": "",
    "id": 93166247,
    "location_subtype": "",
    "month": "2021-06"
  },
  {
    "category": "anti-social-behaviour",
    "location_type": "Force",
    "location": {
      "latitude": "51.910204",
      "street": {
        "id": 708473,
        "name": "On or near Grevil Road"
      },
      "longitude": "-2.103195"
    },
    "context": "",
    "outcome_status": null,
    "persistent_id": "",
    "id": 93166269,
    "location_subtype": "",
    "month": "2021-06"
  },
  {
    "category": "anti-social-behaviour",
    "location_type": "Force",
    "location": {
      "latitude": "51.913352",
      "street": {
        "id": 708471,
        "name": "On or near Joyner Road"
      },
      "longitude": "-2.102883"
    },
    "context": "",
    "outcome_status": null,
    "persistent_id": "",
    "id": 93166347,
    "location_subtype": "",
    "month": "2021-06"
  },
  {
    "category": "anti-social-behaviour",
    "location_type": "Force",
    "location": {
      "latitude": "51.914420",
      "street": {
        "id": 708411,
        "name": "On or near Carter Road"
      },
      "longitude": "-2.104339"
    },
    "context": "",
    "outcome_status": null,
    "persistent_id": "",
    "id": 93166413,
    "location_subtype": "",
    "month": "2021-06"
  },
  {
    "category": "anti-social-behaviour",
    "location_type": "Force",
    "location": {
      "latitude": "51.898042",
      "street": {
        "id": 708221,
        "name": "On or near Sotherby Drive"
      },
      "longitude": "-2.120055"
    },
    "context": "",
    "outcome_status": null,
    "persistent_id": "",
    "id": 93166429,
    "location_subtype": "",
    "month": "2021-06"
  },
  {
    "category": "anti-social-behaviour",
    "location_type": "Force",
    "location": {
      "latitude": "51.900693",
      "street": {
        "id": 707943,
        "name": "On or near St George's Place"
      },
      "longitude": "-2.079367"
    },
    "context": "",
    "outcome_status": null,
    "persistent_id": "",
    "id": 93166488,
    "location_subtype": "",
    "month": "2021-06"
  },
  {
    "category": "anti-social-behaviour",
    "location_type": "Force",
    "location": {
      "latitude": "51.912694",
      "street": {
        "id": 708469,
        "name": "On or near Kingsmead Close"
      },
      "longitude": "-2.104291"
    },
    "context": "",
    "outcome_status": null,
    "persistent_id": "",
    "id": 93166535,
    "location_subtype": "",
    "month": "2021-06"
  },
  {
    "category": "anti-social-behaviour",
    "location_type": "Force",
    "location": {
      "latitude": "51.904081",
      "street": {
        "id": 708604,
        "name": "On or near High Street"
      },
      "longitude": "-2.081553"
    },
    "context": "",
    "outcome_status": null,
    "persistent_id": "",
    "id": 93166563,
    "location_subtype": "",
    "month": "2021-06"
  },
  {
    "category": "anti-social-behaviour",
    "location_type": "Force",
    "location": {
      "latitude": "51.897667",
      "street": {
        "id": 708113,
        "name": "On or near Monks Croft"
      },
      "longitude": "-2.117162"
    },
    "context": "",
    "outcome_status": null,
    "persistent_id": "",
    "id": 93166601,
    "location_subtype": "",
    "month": "2021-06"
  },
  {
    "category": "anti-social-behaviour",
    "location_type": "Force",
    "location": {
      "latitude": "51.911330",
      "street": {
        "id": 708442,
        "name": "On or near Providence Park"
      },
      "longitude": "-2.101788"
    },
    "context": "",
    "outcome_status": null,
    "persistent_id": "",
    "id": 93166629,
    "location_subtype": "",
    "month": "2021-06"
  },
  {
    "category": "anti-social-behaviour",
    "location_type": "Force",
    "location": {
      "latitude": "51.906649",
      "street": {
        "id": 708427,
        "name": "On or near Arle Road"
      },
      "longitude": "-2.097533"
    },
    "context": "",
    "outcome_status": null,
    "persistent_id": "",
    "id": 93166764,
    "location_subtype": "",
    "month": "2021-06"
  },
  {
    "category": "anti-social-behaviour",
    "location_type": "Force",
    "location": {
      "latitude": "51.905860",
      "street": {
        "id": 708566,
        "name": "On or near Swindon Street"
      },
      "longitude": "-2.083519"
    },
    "context": "",
    "outcome_status": null,
    "persistent_id": "",
    "id": 93166774,
    "location_subtype": "",
    "month": "2021-06"
  },
  {
    "category": "anti-social-behaviour",
    "location_type": "Force",
    "location": {
      "latitude": "51.905650",
      "street": {
        "id": 708422,
        "name": "On or near Arle Gardens"
      },
      "longitude": "-2.098359"
    },
    "context": "",
    "outcome_status": null,
    "persistent_id": "",
    "id": 93166818,
    "location_subtype": "",
    "month": "2021-06"
  },
  {
    "category": "anti-social-behaviour",
    "location_type": "Force",
    "location": {
      "latitude": "51.908771",
      "street": {
        "id": 708450,
        "name": "On or near Orchard Way"
      },
      "longitude": "-2.107917"
    },
    "context": "",
    "outcome_status": null,
    "persistent_id": "",
    "id": 93166901,
    "location_subtype": "",
    "month": "2021-06"
  },
  {
    "category": "anti-social-behaviour",
    "location_type": "Force",
    "location": {
      "latitude": "51.904081",
      "street": {
        "id": 708604,
        "name": "On or near High Street"
      },
      "longitude": "-2.081553"
    },
    "context": "",
    "outcome_status": null,
    "persistent_id": "",
    "id": 93166921,
    "location_subtype": "",
    "month": "2021-06"
  },
  {
    "category": "anti-social-behaviour",
    "location_type": "Force",
    "location": {
      "latitude": "51.901376",
      "street": {
        "id": 708081,
        "name": "On or near Devon Avenue"
      },
      "longitude": "-2.102376"
    },
    "context": "",
    "outcome_status": null,
    "persistent_id": "",
    "id": 93167040,
    "location_subtype": "",
    "month": "2021-06"
  },
  {
    "category": "anti-social-behaviour",
    "location_type": "Force",
    "location": {
      "latitude": "51.901599",
      "street": {
        "id": 707897,
        "name": "On or near Pates Avenue"
      },
      "longitude": "-2.094223"
    },
    "context": "",
    "outcome_status": null,
    "persistent_id": "",
    "id": 93167091,
    "location_subtype": "",
    "month": "2021-06"
  },
  {
    "category": "anti-social-behaviour",
    "location_type": "Force",
    "location": {
      "latitude": "51.904871",
      "street": {
        "id": 708603,
        "name": "On or near High Street"
      },
      "longitude": "-2.083444"
    },
    "context": "",
    "outcome_status": null,
    "persistent_id": "",
    "id": 93167118,
    "location_subtype": "",
    "month": "2021-06"
  },
  {
    "category": "anti-social-behaviour",
    "location_type": "Force",
    "location": {
      "latitude": "51.902440",
      "street": {
        "id": 708174,
        "name": "On or near Lloyd Close"
      },
      "longitude": "-2.118802"
    },
    "context": "",
    "outcome_status": null,
    "persistent_id": "",
    "id": 93167122,
    "location_subtype": "",
    "month": "2021-06"
  },
  {
    "category": "anti-social-behaviour",
    "location_type": "Force",
    "location": {
      "latitude": "51.910623",
      "street": {
        "id": 708425,
        "name": "On or near Moors Avenue"
      },
      "longitude": "-2.096931"
    },
    "context": "",
    "outcome_status": null,
    "persistent_id": "",
    "id": 93167172,
    "location_subtype": "",
    "month": "2021-06"
  },
  {
    "category": "anti-social-behaviour",
    "location_type": "Force",
    "location": {
      "latitude": "51.898352",
      "street": {
        "id": 708093,
        "name": "On or near Wordsworth Avenue"
      },
      "longitude": "-2.115638"
    },
    "context": "",
    "outcome_status": null,
    "persistent_id": "",
    "id": 93167198,
    "location_subtype": "",
    "month": "2021-06"
  },
  {
    "category": "anti-social-behaviour",
    "location_type": "Force",
    "location": {
      "latitude": "51.894985",
      "street": {
        "id": 707981,
        "name": "On or near Lansdown Parade"
      },
      "longitude": "-2.090212"
    },
    "context": "",
    "outcome_status": null,
    "persistent_id": "",
    "id": 93167250,
    "location_subtype": "",
    "month": "2021-06"
  },
  {
    "category": "anti-social-behaviour",
    "location_type": "Force",
    "location": {
      "latitude": "51.906587",
      "street": {
        "id": 708620,
        "name": "On or near Charles Street"
      },
      "longitude": "-2.085293"
    },
    "context": "",
    "outcome_status": null,
    "persistent_id": "",
    "id": 93167274,
    "location_subtype": "",
    "month": "2021-06"
  },
  {
    "category": "anti-social-behaviour",
    "location_type": "Force",
    "location": {
      "latitude": "51.906587",
      "street": {
        "id": 708620,
        "name": "On or near Charles Street"
      },
      "longitude": "-2.085293"
    },
    "context": "",
    "outcome_status": null,
    "persistent_id": "",
    "id": 93167289,
    "location_subtype": "",
    "month": "2021-06"
  },
  {
    "category": "anti-social-behaviour",
    "location_type": "Force",
    "location": {
      "latitude": "51.913594",
      "street": {
        "id": 708445,
        "name": "On or near Persimmon Gardens"
      },
      "longitude": "-2.112609"
    },
    "context": "",
    "outcome_status": null,
    "persistent_id": "",
    "id": 93167291,
    "location_subtype": "",
    "month": "2021-06"
  },
  {
    "category": "anti-social-behaviour",
    "location_type": "Force",
    "location": {
      "latitude": "51.896397",
      "street": {
        "id": 708115,
        "name": "On or near Milton Avenue"
      },
      "longitude": "-2.110183"
    },
    "context": "",
    "outcome_status": null,
    "persistent_id": "",
    "id": 93167309,
    "location_subtype": "",
    "month": "2021-06"
  },
  {
    "category": "anti-social-behaviour",
    "location_type": "Force",
    "location": {
      "latitude": "51.899262",
      "street": {
        "id": 707948,
        "name": "On or near Royal Well Lane"
      },
      "longitude": "-2.080556"
    },
    "context": "",
    "outcome_status": null,
    "persistent_id": "",
    "id": 93167331,
    "location_subtype": "",
    "month": "2021-06"
  },
  {
    "category": "anti-social-behaviour",
    "location_type": "Force",
    "location": {
      "latitude": "51.907849",
      "street": {
        "id": 708467,
        "name": "On or near Lechmere Road"
      },
      "longitude": "-2.113118"
    },
    "context": "",
    "outcome_status": null,
    "persistent_id": "",
    "id": 93167343,
    "location_subtype": "",
    "month": "2021-06"
  },
  {
    "category": "anti-social-behaviour",
    "location_type": "Force",
    "location": {
      "latitude": "51.896397",
      "street": {
        "id": 708115,
        "name": "On or near Milton Avenue"
      },
      "longitude": "-2.110183"
    },
    "context": "",
    "outcome_status": null,
    "persistent_id": "",
    "id": 93167376,
    "location_subtype": "",
    "month": "2021-06"
  },
  {
    "category": "anti-social-behaviour",
    "location_type": "Force",
    "location": {
      "latitude": "51.901599",
      "street": {
        "id": 707897,
        "name": "On or near Pates Avenue"
      },
      "longitude": "-2.094223"
    },
    "context": "",
    "outcome_status": null,
    "persistent_id": "",
    "id": 93167418,
    "location_subtype": "",
    "month": "2021-06"
  },
  {
    "category": "anti-social-behaviour",
    "location_type": "Force",
    "location": {
      "latitude": "51.898863",
      "street": {
        "id": 708146,
        "name": "On or near Cowper Road"
      },
      "longitude": "-2.117412"
    },
    "context": "",
    "outcome_status": null,
    "persistent_id": "",
    "id": 93167463,
    "location_subtype": "",
    "month": "2021-06"
  },
  {
    "category": "anti-social-behaviour",
    "location_type": "Force",
    "location": {
      "latitude": "51.906488",
      "street": {
        "id": 708562,
        "name": "On or near Townsend Street"
      },
      "longitude": "-2.084407"
    },
    "context": "",
    "outcome_status": null,
    "persistent_id": "",
    "id": 93167576,
    "location_subtype": "",
    "month": "2021-06"
  },
  {
    "category": "anti-social-behaviour",
    "location_type": "Force",
    "location": {
      "latitude": "51.902959",
      "street": {
        "id": 707913,
        "name": "On or near Ambrose Street"
      },
      "longitude": "-2.079124"
    },
    "context": "",
    "outcome_status": null,
    "persistent_id": "",
    "id": 93167629,
    "location_subtype": "",
    "month": "2021-06"
  },
  {
    "category": "anti-social-behaviour",
    "location_type": "Force",
    "location": {
      "latitude": "51.894985",
      "street": {
        "id": 707981,
        "name": "On or near Lansdown Parade"
      },
      "longitude": "-2.090212"
    },
    "context": "",
    "outcome_status": null,
    "persistent_id": "",
    "id": 93167641,
    "location_subtype": "",
    "month": "2021-06"
  },
  {
    "category": "anti-social-behaviour",
    "location_type": "Force",
    "location": {
      "latitude": "51.906710",
      "street": {
        "id": 708355,
        "name": "On or near Graham Place"
      },
      "longitude": "-2.119482"
    },
    "context": "",
    "outcome_status": null,
    "persistent_id": "",
    "id": 93167736,
    "location_subtype": "",
    "month": "2021-06"
  },
  {
    "category": "anti-social-behaviour",
    "location_type": "Force",
    "location": {
      "latitude": "51.911134",
      "street": {
        "id": 708360,
        "name": "On or near Beaumont Drive"
      },
      "longitude": "-2.118738"
    },
    "context": "",
    "outcome_status": null,
    "persistent_id": "",
    "id": 93167769,
    "location_subtype": "",
    "month": "2021-06"
  },
  {
    "category": "anti-social-behaviour",
    "location_type": "Force",
    "location": {
      "latitude": "51.894985",
      "street": {
        "id": 707981,
        "name": "On or near Lansdown Parade"
      },
      "longitude": "-2.090212"
    },
    "context": "",
    "outcome_status": null,
    "persistent_id": "",
    "id": 93167776,
    "location_subtype": "",
    "month": "2021-06"
  },
  {
    "category": "anti-social-behaviour",
    "location_type": "Force",
    "location": {
      "latitude": "51.906649",
      "street": {
        "id": 708427,
        "name": "On or near Arle Road"
      },
      "longitude": "-2.097533"
    },
    "context": "",
    "outcome_status": null,
    "persistent_id": "",
    "id": 93167788,
    "location_subtype": "",
    "month": "2021-06"
  },
  {
    "category": "anti-social-behaviour",
    "location_type": "Force",
    "location": {
      "latitude": "51.909575",
      "street": {
        "id": 708565,
        "name": "On or near Tewkesbury Road"
      },
      "longitude": "-2.091957"
    },
    "context": "",
    "outcome_status": null,
    "persistent_id": "",
    "id": 93167814,
    "location_subtype": "",
    "month": "2021-06"
  },
  {
    "category": "anti-social-behaviour",
    "location_type": "Force",
    "location": {
      "latitude": "51.896397",
      "street": {
        "id": 708115,
        "name": "On or near Milton Avenue"
      },
      "longitude": "-2.110183"
    },
    "context": "",
    "outcome_status": null,
    "persistent_id": "",
    "id": 93167863,
    "location_subtype": "",
    "month": "2021-06"
  },
  {
    "category": "anti-social-behaviour",
    "location_type": "Force",
    "location": {
      "latitude": "51.903235",
      "street": {
        "id": 708061,
        "name": "On or near Yalta Close"
      },
      "longitude": "-2.114328"
    },
    "context": "",
    "outcome_status": null,
    "persistent_id": "",
    "id": 93167879,
    "location_subtype": "",
    "month": "2021-06"
  },
  {
    "category": "anti-social-behaviour",
    "location_type": "Force",
    "location": {
      "latitude": "51.898352",
      "street": {
        "id": 708093,
        "name": "On or near Wordsworth Avenue"
      },
      "longitude": "-2.115638"
    },
    "context": "",
    "outcome_status": null,
    "persistent_id": "",
    "id": 93167906,
    "location_subtype": "",
    "month": "2021-06"
  },
  {
    "category": "anti-social-behaviour",
    "location_type": "Force",
    "location": {
      "latitude": "51.906488",
      "street": {
        "id": 708562,
        "name": "On or near Townsend Street"
      },
      "longitude": "-2.084407"
    },
    "context": "",
    "outcome_status": null,
    "persistent_id": "",
    "id": 93167914,
    "location_subtype": "",
    "month": "2021-06"
  },
  {
    "category": "anti-social-behaviour",
    "location_type": "Force",
    "location": {
      "latitude": "51.899350",
      "street": {
        "id": 707942,
        "name": "On or near St George's Road"
      },
      "longitude": "-2.083579"
    },
    "context": "",
    "outcome_status": null,
    "persistent_id": "",
    "id": 93167964,
    "location_subtype": "",
    "month": "2021-06"
  },
  {
    "category": "anti-social-behaviour",
    "location_type": "Force",
    "location": {
      "latitude": "51.904697",
      "street": {
        "id": 708420,
        "name": "On or near Bryanstone Close"
      },
      "longitude": "-2.098444"
    },
    "context": "",
    "outcome_status": null,
    "persistent_id": "",
    "id": 93168002,
    "location_subtype": "",
    "month": "2021-06"
  },
  {
    "category": "anti-social-behaviour",
    "location_type": "Force",
    "location": {
      "latitude": "51.905950",
      "street": {
        "id": 708464,
        "name": "On or near Lucinia Mews"
      },
      "longitude": "-2.105017"
    },
    "context": "",
    "outcome_status": null,
    "persistent_id": "",
    "id": 93167816,
    "location_subtype": "",
    "month": "2021-06"
  },
  {
    "category": "anti-social-behaviour",
    "location_type": "Force",
    "location": {
      "latitude": "51.894985",
      "street": {
        "id": 707981,
        "name": "On or near Lansdown Parade"
      },
      "longitude": "-2.090212"
    },
    "context": "",
    "outcome_status": null,
    "persistent_id": "",
    "id": 93166878,
    "location_subtype": "",
    "month": "2021-06"
  },
  {
    "category": "anti-social-behaviour",
    "location_type": "Force",
    "location": {
      "latitude": "51.905050",
      "street": {
        "id": 708602,
        "name": "On or near High Street"
      },
      "longitude": "-2.083837"
    },
    "context": "",
    "outcome_status": null,
    "persistent_id": "",
    "id": 93166795,
    "location_subtype": "",
    "month": "2021-06"
  },
  {
    "category": "anti-social-behaviour",
    "location_type": "Force",
    "location": {
      "latitude": "51.894985",
      "street": {
        "id": 707981,
        "name": "On or near Lansdown Parade"
      },
      "longitude": "-2.090212"
    },
    "context": "",
    "outcome_status": null,
    "persistent_id": "",
    "id": 93166109,
    "location_subtype": "",
    "month": "2021-06"
  },
  {
    "category": "anti-social-behaviour",
    "location_type": "Force",
    "location": {
      "latitude": "51.901863",
      "street": {
        "id": 708063,
        "name": "On or near Sussex Avenue"
      },
      "longitude": "-2.100502"
    },
    "context": "",
    "outcome_status": null,
    "persistent_id": "",
    "id": 93165518,
    "location_subtype": "",
    "month": "2021-06"
  },
  {
    "category": "anti-social-behaviour",
    "location_type": "Force",
    "location": {
      "latitude": "51.903666",
      "street": {
        "id": 708551,
        "name": "On or near Burton Street"
      },
      "longitude": "-2.083195"
    },
    "context": "",
    "outcome_status": null,
    "persistent_id": "",
    "id": 93164595,
    "location_subtype": "",
    "month": "2021-06"
  },
  {
    "category": "anti-social-behaviour",
    "location_type": "Force",
    "location": {
      "latitude": "51.904962",
      "street": {
        "id": 708605,
        "name": "On or near Hereford Place"
      },
      "longitude": "-2.081438"
    },
    "context": "",
    "outcome_status": null,
    "persistent_id": "",
    "id": 93164438,
    "location_subtype": "",
    "month": "2021-06"
  },
  {
    "category": "anti-social-behaviour",
    "location_type": "Force",
    "location": {
      "latitude": "51.904263",
      "street": {
        "id": 708533,
        "name": "On or near New Rutland Court"
      },
      "longitude": "-2.078167"
    },
    "context": "",
    "outcome_status": null,
    "persistent_id": "",
    "id": 93164211,
    "location_subtype": "",
    "month": "2021-06"
  },
  {
    "category": "anti-social-behaviour",
    "location_type": "Force",
    "location": {
      "latitude": "51.902001",
      "street": {
        "id": 708090,
        "name": "On or near Hospital"
      },
      "longitude": "-2.116984"
    },
    "context": "",
    "outcome_status": null,
    "persistent_id": "",
    "id": 93165236,
    "location_subtype": "",
    "month": "2021-06"
  },
  {
    "category": "anti-social-behaviour",
    "location_type": "Force",
    "location": {
      "latitude": "51.898863",
      "street": {
        "id": 708146,
        "name": "On or near Cowper Road"
      },
      "longitude": "-2.117412"
    },
    "context": "",
    "outcome_status": null,
    "persistent_id": "",
    "id": 93164990,
    "location_subtype": "",
    "month": "2021-06"
  },
  {
    "category": "anti-social-behaviour",
    "location_type": "Force",
    "location": {
      "latitude": "51.894985",
      "street": {
        "id": 707981,
        "name": "On or near Lansdown Parade"
      },
      "longitude": "-2.090212"
    },
    "context": "",
    "outcome_status": null,
    "persistent_id": "",
    "id": 93165037,
    "location_subtype": "",
    "month": "2021-06"
  },
  {
    "category": "anti-social-behaviour",
    "location_type": "Force",
    "location": {
      "latitude": "51.910301",
      "street": {
        "id": 708575,
        "name": "On or near St Peters Close"
      },
      "longitude": "-2.095607"
    },
    "context": "",
    "outcome_status": null,
    "persistent_id": "",
    "id": 93164981,
    "location_subtype": "",
    "month": "2021-06"
  },
  {
    "category": "anti-social-behaviour",
    "location_type": "Force",
    "location": {
      "latitude": "51.895562",
      "street": {
        "id": 708170,
        "name": "On or near Glencairn Park Road"
      },
      "longitude": "-2.099035"
    },
    "context": "",
    "outcome_status": null,
    "persistent_id": "",
    "id": 93164988,
    "location_subtype": "",
    "month": "2021-06"
  },
  {
    "category": "anti-social-behaviour",
    "location_type": "Force",
    "location": {
      "latitude": "51.903380",
      "street": {
        "id": 708177,
        "name": "On or near Terry Ruck Close"
      },
      "longitude": "-2.122337"
    },
    "context": "",
    "outcome_status": null,
    "persistent_id": "",
    "id": 93165023,
    "location_subtype": "",
    "month": "2021-06"
  },
  {
    "category": "anti-social-behaviour",
    "location_type": "Force",
    "location": {
      "latitude": "51.905800",
      "street": {
        "id": 708532,
        "name": "On or near St Paul's Lane"
      },
      "longitude": "-2.078707"
    },
    "context": "",
    "outcome_status": null,
    "persistent_id": "",
    "id": 93165044,
    "location_subtype": "",
    "month": "2021-06"
  },
  {
    "category": "anti-social-behaviour",
    "location_type": "Force",
    "location": {
      "latitude": "51.898863",
      "street": {
        "id": 708146,
        "name": "On or near Cowper Road"
      },
      "longitude": "-2.117412"
    },
    "context": "",
    "outcome_status": null,
    "persistent_id": "",
    "id": 93165049,
    "location_subtype": "",
    "month": "2021-06"
  },
  {
    "category": "anti-social-behaviour",
    "location_type": "Force",
    "location": {
      "latitude": "51.899151",
      "street": {
        "id": 708162,
        "name": "On or near Stow Court"
      },
      "longitude": "-2.097473"
    },
    "context": "",
    "outcome_status": null,
    "persistent_id": "",
    "id": 93165207,
    "location_subtype": "",
    "month": "2021-06"
  },
  {
    "category": "anti-social-behaviour",
    "location_type": "Force",
    "location": {
      "latitude": "51.894700",
      "street": {
        "id": 708160,
        "name": "On or near Petrol Station"
      },
      "longitude": "-2.107941"
    },
    "context": "",
    "outcome_status": null,
    "persistent_id": "",
    "id": 93165216,
    "location_subtype": "",
    "month": "2021-06"
  },
  {
    "category": "anti-social-behaviour",
    "location_type": "Force",
    "location": {
      "latitude": "51.911663",
      "street": {
        "id": 708347,
        "name": "On or near Springbank Close"
      },
      "longitude": "-2.119655"
    },
    "context": "",
    "outcome_status": null,
    "persistent_id": "",
    "id": 93165238,
    "location_subtype": "",
    "month": "2021-06"
  },
  {
    "category": "anti-social-behaviour",
    "location_type": "Force",
    "location": {
      "latitude": "51.902406",
      "street": {
        "id": 707918,
        "name": "On or near Petrol Station"
      },
      "longitude": "-2.085547"
    },
    "context": "",
    "outcome_status": null,
    "persistent_id": "",
    "id": 93165265,
    "location_subtype": "",
    "month": "2021-06"
  },
  {
    "category": "anti-social-behaviour",
    "location_type": "Force",
    "location": {
      "latitude": "51.897667",
      "street": {
        "id": 708113,
        "name": "On or near Monks Croft"
      },
      "longitude": "-2.117162"
    },
    "context": "",
    "outcome_status": null,
    "persistent_id": "",
    "id": 93165288,
    "location_subtype": "",
    "month": "2021-06"
  },
  {
    "category": "anti-social-behaviour",
    "location_type": "Force",
    "location": {
      "latitude": "51.904497",
      "street": {
        "id": 708456,
        "name": "On or near Newton Road"
      },
      "longitude": "-2.111700"
    },
    "context": "",
    "outcome_status": null,
    "persistent_id": "",
    "id": 93165330,
    "location_subtype": "",
    "month": "2021-06"
  },
  {
    "category": "anti-social-behaviour",
    "location_type": "Force",
    "location": {
      "latitude": "51.897522",
      "street": {
        "id": 707993,
        "name": "On or near Drakes Place"
      },
      "longitude": "-2.088139"
    },
    "context": "",
    "outcome_status": null,
    "persistent_id": "",
    "id": 93165349,
    "location_subtype": "",
    "month": "2021-06"
  },
  {
    "category": "anti-social-behaviour",
    "location_type": "Force",
    "location": {
      "latitude": "51.908771",
      "street": {
        "id": 708450,
        "name": "On or near Orchard Way"
      },
      "longitude": "-2.107917"
    },
    "context": "",
    "outcome_status": null,
    "persistent_id": "",
    "id": 93165356,
    "location_subtype": "",
    "month": "2021-06"
  },
  {
    "category": "anti-social-behaviour",
    "location_type": "Force",
    "location": {
      "latitude": "51.903343",
      "street": {
        "id": 707916,
        "name": "On or near Alstone Croft"
      },
      "longitude": "-2.094212"
    },
    "context": "",
    "outcome_status": null,
    "persistent_id": "",
    "id": 93163678,
    "location_subtype": "",
    "month": "2021-06"
  },
  {
    "category": "anti-social-behaviour",
    "location_type": "Force",
    "location": {
      "latitude": "51.897507",
      "street": {
        "id": 708095,
        "name": "On or near Wasley Road"
      },
      "longitude": "-2.115287"
    },
    "context": "",
    "outcome_status": null,
    "persistent_id": "",
    "id": 93163710,
    "location_subtype": "",
    "month": "2021-06"
  },
  {
    "category": "anti-social-behaviour",
    "location_type": "Force",
    "location": {
      "latitude": "51.896055",
      "street": {
        "id": 708124,
        "name": "On or near Kingsley Gardens"
      },
      "longitude": "-2.111228"
    },
    "context": "",
    "outcome_status": null,
    "persistent_id": "",
    "id": 93163745,
    "location_subtype": "",
    "month": "2021-06"
  },
  {
    "category": "anti-social-behaviour",
    "location_type": "Force",
    "location": {
      "latitude": "51.890630",
      "street": {
        "id": 707987,
        "name": "On or near Hatherley Court Road"
      },
      "longitude": "-2.093647"
    },
    "context": "",
    "outcome_status": null,
    "persistent_id": "",
    "id": 93163796,
    "location_subtype": "",
    "month": "2021-06"
  },
  {
    "category": "anti-social-behaviour",
    "location_type": "Force",
    "location": {
      "latitude": "51.914236",
      "street": {
        "id": 708335,
        "name": "On or near Pilgrove Close"
      },
      "longitude": "-2.118179"
    },
    "context": "",
    "outcome_status": null,
    "persistent_id": "",
    "id": 93163800,
    "location_subtype": "",
    "month": "2021-06"
  },
  {
    "category": "anti-social-behaviour",
    "location_type": "Force",
    "location": {
      "latitude": "51.911262",
      "street": {
        "id": 708424,
        "name": "On or near St Peter's Square"
      },
      "longitude": "-2.097063"
    },
    "context": "",
    "outcome_status": null,
    "persistent_id": "",
    "id": 93163814,
    "location_subtype": "",
    "month": "2021-06"
  },
  {
    "category": "anti-social-behaviour",
    "location_type": "Force",
    "location": {
      "latitude": "51.909793",
      "street": {
        "id": 708558,
        "name": "On or near Waterloo Street"
      },
      "longitude": "-2.089908"
    },
    "context": "",
    "outcome_status": null,
    "persistent_id": "",
    "id": 93163843,
    "location_subtype": "",
    "month": "2021-06"
  },
  {
    "category": "anti-social-behaviour",
    "location_type": "Force",
    "location": {
      "latitude": "51.905950",
      "street": {
        "id": 708464,
        "name": "On or near Lucinia Mews"
      },
      "longitude": "-2.105017"
    },
    "context": "",
    "outcome_status": null,
    "persistent_id": "",
    "id": 93163855,
    "location_subtype": "",
    "month": "2021-06"
  },
  {
    "category": "anti-social-behaviour",
    "location_type": "Force",
    "location": {
      "latitude": "51.914869",
      "street": {
        "id": 708414,
        "name": "On or near Barnett Close"
      },
      "longitude": "-2.114488"
    },
    "context": "",
    "outcome_status": null,
    "persistent_id": "",
    "id": 93163857,
    "location_subtype": "",
    "month": "2021-06"
  },
  {
    "category": "anti-social-behaviour",
    "location_type": "Force",
    "location": {
      "latitude": "51.914793",
      "street": {
        "id": 708419,
        "name": "On or near Shopping Area"
      },
      "longitude": "-2.099557"
    },
    "context": "",
    "outcome_status": null,
    "persistent_id": "",
    "id": 93163861,
    "location_subtype": "",
    "month": "2021-06"
  },
  {
    "category": "anti-social-behaviour",
    "location_type": "Force",
    "location": {
      "latitude": "51.914869",
      "street": {
        "id": 708414,
        "name": "On or near Barnett Close"
      },
      "longitude": "-2.114488"
    },
    "context": "",
    "outcome_status": null,
    "persistent_id": "",
    "id": 93163882,
    "location_subtype": "",
    "month": "2021-06"
  },
  {
    "category": "anti-social-behaviour",
    "location_type": "Force",
    "location": {
      "latitude": "51.900363",
      "street": {
        "id": 707923,
        "name": "On or near Western Road"
      },
      "longitude": "-2.088348"
    },
    "context": "",
    "outcome_status": null,
    "persistent_id": "",
    "id": 93163892,
    "location_subtype": "",
    "month": "2021-06"
  },
  {
    "category": "anti-social-behaviour",
    "location_type": "Force",
    "location": {
      "latitude": "51.902534",
      "street": {
        "id": 708077,
        "name": "On or near Evington Road"
      },
      "longitude": "-2.114776"
    },
    "context": "",
    "outcome_status": null,
    "persistent_id": "",
    "id": 93163910,
    "location_subtype": "",
    "month": "2021-06"
  },
  {
    "category": "anti-social-behaviour",
    "location_type": "Force",
    "location": {
      "latitude": "51.901805",
      "street": {
        "id": 707902,
        "name": "On or near Jessop Avenue"
      },
      "longitude": "-2.083409"
    },
    "context": "",
    "outcome_status": null,
    "persistent_id": "",
    "id": 93164068,
    "location_subtype": "",
    "month": "2021-06"
  },
  {
    "category": "anti-social-behaviour",
    "location_type": "Force",
    "location": {
      "latitude": "51.906710",
      "street": {
        "id": 708355,
        "name": "On or near Graham Place"
      },
      "longitude": "-2.119482"
    },
    "context": "",
    "outcome_status": null,
    "persistent_id": "",
    "id": 93164099,
    "location_subtype": "",
    "month": "2021-06"
  },
  {
    "category": "anti-social-behaviour",
    "location_type": "Force",
    "location": {
      "latitude": "51.896232",
      "street": {
        "id": 708151,
        "name": "On or near Campden Road"
      },
      "longitude": "-2.113409"
    },
    "context": "",
    "outcome_status": null,
    "persistent_id": "",
    "id": 93164106,
    "location_subtype": "",
    "month": "2021-06"
  },
  {
    "category": "anti-social-behaviour",
    "location_type": "Force",
    "location": {
      "latitude": "51.906710",
      "street": {
        "id": 708355,
        "name": "On or near Graham Place"
      },
      "longitude": "-2.119482"
    },
    "context": "",
    "outcome_status": null,
    "persistent_id": "",
    "id": 93164111,
    "location_subtype": "",
    "month": "2021-06"
  },
  {
    "category": "anti-social-behaviour",
    "location_type": "Force",
    "location": {
      "latitude": "51.898352",
      "street": {
        "id": 708093,
        "name": "On or near Wordsworth Avenue"
      },
      "longitude": "-2.115638"
    },
    "context": "",
    "outcome_status": null,
    "persistent_id": "",
    "id": 93164139,
    "location_subtype": "",
    "month": "2021-06"
  },
  {
    "category": "anti-social-behaviour",
    "location_type": "Force",
    "location": {
      "latitude": "51.909768",
      "street": {
        "id": 708623,
        "name": "On or near Bullingham Court"
      },
      "longitude": "-2.086695"
    },
    "context": "",
    "outcome_status": null,
    "persistent_id": "",
    "id": 93164149,
    "location_subtype": "",
    "month": "2021-06"
  },
  {
    "category": "anti-social-behaviour",
    "location_type": "Force",
    "location": {
      "latitude": "51.909356",
      "street": {
        "id": 708482,
        "name": "On or near Brown Close"
      },
      "longitude": "-2.116277"
    },
    "context": "",
    "outcome_status": null,
    "persistent_id": "",
    "id": 93164166,
    "location_subtype": "",
    "month": "2021-06"
  },
  {
    "category": "anti-social-behaviour",
    "location_type": "Force",
    "location": {
      "latitude": "51.905647",
      "street": {
        "id": 708530,
        "name": "On or near St Paul's Street North"
      },
      "longitude": "-2.078227"
    },
    "context": "",
    "outcome_status": null,
    "persistent_id": "",
    "id": 93164184,
    "location_subtype": "",
    "month": "2021-06"
  },
  {
    "category": "anti-social-behaviour",
    "location_type": "Force",
    "location": {
      "latitude": "51.902959",
      "street": {
        "id": 707913,
        "name": "On or near Ambrose Street"
      },
      "longitude": "-2.079124"
    },
    "context": "",
    "outcome_status": null,
    "persistent_id": "",
    "id": 93164192,
    "location_subtype": "",
    "month": "2021-06"
  },
  {
    "category": "anti-social-behaviour",
    "location_type": "Force",
    "location": {
      "latitude": "51.902959",
      "street": {
        "id": 707913,
        "name": "On or near Ambrose Street"
      },
      "longitude": "-2.079124"
    },
    "context": "",
    "outcome_status": null,
    "persistent_id": "",
    "id": 93164202,
    "location_subtype": "",
    "month": "2021-06"
  },
  {
    "category": "anti-social-behaviour",
    "location_type": "Force",
    "location": {
      "latitude": "51.900681",
      "street": {
        "id": 707927,
        "name": "On or near Vineyards Lane"
      },
      "longitude": "-2.094889"
    },
    "context": "",
    "outcome_status": null,
    "persistent_id": "",
    "id": 93164205,
    "location_subtype": "",
    "month": "2021-06"
  },
  {
    "category": "anti-social-behaviour",
    "location_type": "Force",
    "location": {
      "latitude": "51.916034",
      "street": {
        "id": 708402,
        "name": "On or near Newland View"
      },
      "longitude": "-2.109126"
    },
    "context": "",
    "outcome_status": null,
    "persistent_id": "",
    "id": 93164256,
    "location_subtype": "",
    "month": "2021-06"
  },
  {
    "category": "anti-social-behaviour",
    "location_type": "Force",
    "location": {
      "latitude": "51.902517",
      "street": {
        "id": 707889,
        "name": "On or near Thornbury Close"
      },
      "longitude": "-2.093193"
    },
    "context": "",
    "outcome_status": null,
    "persistent_id": "",
    "id": 93164312,
    "location_subtype": "",
    "month": "2021-06"
  },
  {
    "category": "anti-social-behaviour",
    "location_type": "Force",
    "location": {
      "latitude": "51.906710",
      "street": {
        "id": 708355,
        "name": "On or near Graham Place"
      },
      "longitude": "-2.119482"
    },
    "context": "",
    "outcome_status": null,
    "persistent_id": "",
    "id": 93164331,
    "location_subtype": "",
    "month": "2021-06"
  },
  {
    "category": "anti-social-behaviour",
    "location_type": "Force",
    "location": {
      "latitude": "51.893899",
      "street": {
        "id": 708133,
        "name": "On or near Granley Road"
      },
      "longitude": "-2.108549"
    },
    "context": "",
    "outcome_status": null,
    "persistent_id": "",
    "id": 93164416,
    "location_subtype": "",
    "month": "2021-06"
  },
  {
    "category": "anti-social-behaviour",
    "location_type": "Force",
    "location": {
      "latitude": "51.896440",
      "street": {
        "id": 708136,
        "name": "On or near Gloucester Road"
      },
      "longitude": "-2.102205"
    },
    "context": "",
    "outcome_status": null,
    "persistent_id": "",
    "id": 93164428,
    "location_subtype": "",
    "month": "2021-06"
  },
  {
    "category": "anti-social-behaviour",
    "location_type": "Force",
    "location": {
      "latitude": "51.904081",
      "street": {
        "id": 708604,
        "name": "On or near High Street"
      },
      "longitude": "-2.081553"
    },
    "context": "",
    "outcome_status": null,
    "persistent_id": "",
    "id": 93164430,
    "location_subtype": "",
    "month": "2021-06"
  },
  {
    "category": "anti-social-behaviour",
    "location_type": "Force",
    "location": {
      "latitude": "51.903067",
      "street": {
        "id": 707905,
        "name": "On or near High Street"
      },
      "longitude": "-2.079022"
    },
    "context": "",
    "outcome_status": null,
    "persistent_id": "",
    "id": 93164439,
    "location_subtype": "",
    "month": "2021-06"
  },
  {
    "category": "anti-social-behaviour",
    "location_type": "Force",
    "location": {
      "latitude": "51.903177",
      "street": {
        "id": 707911,
        "name": "On or near Amos Close"
      },
      "longitude": "-2.088281"
    },
    "context": "",
    "outcome_status": null,
    "persistent_id": "",
    "id": 93164442,
    "location_subtype": "",
    "month": "2021-06"
  },
  {
    "category": "anti-social-behaviour",
    "location_type": "Force",
    "location": {
      "latitude": "51.908509",
      "street": {
        "id": 708351,
        "name": "On or near Hester's Way Road"
      },
      "longitude": "-2.118179"
    },
    "context": "",
    "outcome_status": null,
    "persistent_id": "",
    "id": 93164444,
    "location_subtype": "",
    "month": "2021-06"
  },
  {
    "category": "anti-social-behaviour",
    "location_type": "Force",
    "location": {
      "latitude": "51.909494",
      "street": {
        "id": 708378,
        "name": "On or near Helens Close"
      },
      "longitude": "-2.121743"
    },
    "context": "",
    "outcome_status": null,
    "persistent_id": "",
    "id": 93164458,
    "location_subtype": "",
    "month": "2021-06"
  },
  {
    "category": "anti-social-behaviour",
    "location_type": "Force",
    "location": {
      "latitude": "51.901805",
      "street": {
        "id": 707902,
        "name": "On or near Jessop Avenue"
      },
      "longitude": "-2.083409"
    },
    "context": "",
    "outcome_status": null,
    "persistent_id": "",
    "id": 93164462,
    "location_subtype": "",
    "month": "2021-06"
  },
  {
    "category": "anti-social-behaviour",
    "location_type": "Force",
    "location": {
      "latitude": "51.911194",
      "street": {
        "id": 708465,
        "name": "On or near Lipson Road"
      },
      "longitude": "-2.112240"
    },
    "context": "",
    "outcome_status": null,
    "persistent_id": "",
    "id": 93164473,
    "location_subtype": "",
    "month": "2021-06"
  },
  {
    "category": "anti-social-behaviour",
    "location_type": "Force",
    "location": {
      "latitude": "51.899733",
      "street": {
        "id": 708224,
        "name": "On or near Pinewood Drive"
      },
      "longitude": "-2.119187"
    },
    "context": "",
    "outcome_status": null,
    "persistent_id": "",
    "id": 93164506,
    "location_subtype": "",
    "month": "2021-06"
  },
  {
    "category": "anti-social-behaviour",
    "location_type": "Force",
    "location": {
      "latitude": "51.903666",
      "street": {
        "id": 708551,
        "name": "On or near Burton Street"
      },
      "longitude": "-2.083195"
    },
    "context": "",
    "outcome_status": null,
    "persistent_id": "",
    "id": 93164589,
    "location_subtype": "",
    "month": "2021-06"
  },
  {
    "category": "anti-social-behaviour",
    "location_type": "Force",
    "location": {
      "latitude": "51.901599",
      "street": {
        "id": 707897,
        "name": "On or near Pates Avenue"
      },
      "longitude": "-2.094223"
    },
    "context": "",
    "outcome_status": null,
    "persistent_id": "",
    "id": 93164623,
    "location_subtype": "",
    "month": "2021-06"
  },
  {
    "category": "anti-social-behaviour",
    "location_type": "Force",
    "location": {
      "latitude": "51.893899",
      "street": {
        "id": 708133,
        "name": "On or near Granley Road"
      },
      "longitude": "-2.108549"
    },
    "context": "",
    "outcome_status": null,
    "persistent_id": "",
    "id": 93164650,
    "location_subtype": "",
    "month": "2021-06"
  },
  {
    "category": "anti-social-behaviour",
    "location_type": "Force",
    "location": {
      "latitude": "51.901634",
      "street": {
        "id": 708074,
        "name": "On or near Hamlet Close"
      },
      "longitude": "-2.115414"
    },
    "context": "",
    "outcome_status": null,
    "persistent_id": "",
    "id": 93164670,
    "location_subtype": "",
    "month": "2021-06"
  },
  {
    "category": "anti-social-behaviour",
    "location_type": "Force",
    "location": {
      "latitude": "51.901634",
      "street": {
        "id": 708074,
        "name": "On or near Hamlet Close"
      },
      "longitude": "-2.115414"
    },
    "context": "",
    "outcome_status": null,
    "persistent_id": "",
    "id": 93164698,
    "location_subtype": "",
    "month": "2021-06"
  },
  {
    "category": "anti-social-behaviour",
    "location_type": "Force",
    "location": {
      "latitude": "51.899733",
      "street": {
        "id": 708224,
        "name": "On or near Pinewood Drive"
      },
      "longitude": "-2.119187"
    },
    "context": "",
    "outcome_status": null,
    "persistent_id": "",
    "id": 93164700,
    "location_subtype": "",
    "month": "2021-06"
  },
  {
    "category": "anti-social-behaviour",
    "location_type": "Force",
    "location": {
      "latitude": "51.906649",
      "street": {
        "id": 708427,
        "name": "On or near Arle Road"
      },
      "longitude": "-2.097533"
    },
    "context": "",
    "outcome_status": null,
    "persistent_id": "",
    "id": 93164713,
    "location_subtype": "",
    "month": "2021-06"
  },
  {
    "category": "anti-social-behaviour",
    "location_type": "Force",
    "location": {
      "latitude": "51.914793",
      "street": {
        "id": 708419,
        "name": "On or near Shopping Area"
      },
      "longitude": "-2.099557"
    },
    "context": "",
    "outcome_status": null,
    "persistent_id": "",
    "id": 93164723,
    "location_subtype": "",
    "month": "2021-06"
  },
  {
    "category": "anti-social-behaviour",
    "location_type": "Force",
    "location": {
      "latitude": "51.901599",
      "street": {
        "id": 707897,
        "name": "On or near Pates Avenue"
      },
      "longitude": "-2.094223"
    },
    "context": "",
    "outcome_status": null,
    "persistent_id": "",
    "id": 93164730,
    "location_subtype": "",
    "month": "2021-06"
  },
  {
    "category": "anti-social-behaviour",
    "location_type": "Force",
    "location": {
      "latitude": "51.908518",
      "street": {
        "id": 708583,
        "name": "On or near Queen Street"
      },
      "longitude": "-2.087303"
    },
    "context": "",
    "outcome_status": null,
    "persistent_id": "",
    "id": 93164734,
    "location_subtype": "",
    "month": "2021-06"
  },
  {
    "category": "anti-social-behaviour",
    "location_type": "Force",
    "location": {
      "latitude": "51.894985",
      "street": {
        "id": 707981,
        "name": "On or near Lansdown Parade"
      },
      "longitude": "-2.090212"
    },
    "context": "",
    "outcome_status": null,
    "persistent_id": "",
    "id": 93164736,
    "location_subtype": "",
    "month": "2021-06"
  },
  {
    "category": "anti-social-behaviour",
    "location_type": "Force",
    "location": {
      "latitude": "51.902949",
      "street": {
        "id": 707895,
        "name": "On or near Royal Oak Mews"
      },
      "longitude": "-2.080577"
    },
    "context": "",
    "outcome_status": null,
    "persistent_id": "",
    "id": 93164738,
    "location_subtype": "",
    "month": "2021-06"
  },
  {
    "category": "anti-social-behaviour",
    "location_type": "Force",
    "location": {
      "latitude": "51.908518",
      "street": {
        "id": 708583,
        "name": "On or near Queen Street"
      },
      "longitude": "-2.087303"
    },
    "context": "",
    "outcome_status": null,
    "persistent_id": "",
    "id": 93164740,
    "location_subtype": "",
    "month": "2021-06"
  },
  {
    "category": "anti-social-behaviour",
    "location_type": "Force",
    "location": {
      "latitude": "51.902959",
      "street": {
        "id": 707913,
        "name": "On or near Ambrose Street"
      },
      "longitude": "-2.079124"
    },
    "context": "",
    "outcome_status": null,
    "persistent_id": "",
    "id": 93164741,
    "location_subtype": "",
    "month": "2021-06"
  },
  {
    "category": "anti-social-behaviour",
    "location_type": "Force",
    "location": {
      "latitude": "51.901789",
      "street": {
        "id": 708075,
        "name": "On or near Goldsmith Road"
      },
      "longitude": "-2.113045"
    },
    "context": "",
    "outcome_status": null,
    "persistent_id": "",
    "id": 93164750,
    "location_subtype": "",
    "month": "2021-06"
  },
  {
    "category": "bicycle-theft",
    "location_type": "Force",
    "location": {
      "latitude": "51.904871",
      "street": {
        "id": 708603,
        "name": "On or near High Street"
      },
      "longitude": "-2.083444"
    },
    "context": "",
    "outcome_status": {
      "category": "Unable to prosecute suspect",
      "date": "2021-06"
    },
    "persistent_id": "39f8364ddebea79f816f431135cb789e0fa547993b3616f5ae5704ee0e5bbbbc",
    "id": 93156446,
    "location_subtype": "",
    "month": "2021-06"
  },
  {
    "category": "bicycle-theft",
    "location_type": "Force",
    "location": {
      "latitude": "51.904414",
      "street": {
        "id": 708600,
        "name": "On or near King Street"
      },
      "longitude": "-2.080289"
    },
    "context": "",
    "outcome_status": {
      "category": "Investigation complete; no suspect identified",
      "date": "2021-06"
    },
    "persistent_id": "0bdf2dea6ea1d124eaa2b1d9374fa1457c7bb10a27b485bc8dfab56e1d220afd",
    "id": 93155742,
    "location_subtype": "",
    "month": "2021-06"
  },
  {
    "category": "bicycle-theft",
    "location_type": "Force",
    "location": {
      "latitude": "51.909747",
      "street": {
        "id": 708613,
        "name": "On or near Elm Close"
      },
      "longitude": "-2.090954"
    },
    "context": "",
    "outcome_status": {
      "category": "Under investigation",
      "date": "2021-06"
    },
    "persistent_id": "ce8e119f2479556cbd0c27147e2edb8126a1321599ce5f2dc8f251cbe0779ec2",
    "id": 93159466,
    "location_subtype": "",
    "month": "2021-06"
  },
  {
    "category": "burglary",
    "location_type": "Force",
    "location": {
      "latitude": "51.906997",
      "street": {
        "id": 708458,
        "name": "On or near Netherwood Gardens"
      },
      "longitude": "-2.100673"
    },
    "context": "",
    "outcome_status": {
      "category": "Under investigation",
      "date": "2021-06"
    },
    "persistent_id": "ab154b0c3346437738eda25892f56600152ccd52a5af5dafcb5b84bc0b8ad7c6",
    "id": 93156547,
    "location_subtype": "",
    "month": "2021-06"
  },
  {
    "category": "burglary",
    "location_type": "Force",
    "location": {
      "latitude": "51.904081",
      "street": {
        "id": 708604,
        "name": "On or near High Street"
      },
      "longitude": "-2.081553"
    },
    "context": "",
    "outcome_status": {
      "category": "Investigation complete; no suspect identified",
      "date": "2021-06"
    },
    "persistent_id": "65a4115c791edb31487a7d3224ae164089f9944aaa00aef1e09b3233a8895471",
    "id": 93163108,
    "location_subtype": "",
    "month": "2021-06"
  },
  {
    "category": "burglary",
    "location_type": "Force",
    "location": {
      "latitude": "51.907909",
      "street": {
        "id": 708449,
        "name": "On or near Orchard Way"
      },
      "longitude": "-2.106315"
    },
    "context": "",
    "outcome_status": {
      "category": "Under investigation",
      "date": "2021-06"
    },
    "persistent_id": "266e6a45262de1ad70baf90df3a11121660410f8c530061c90267dc04a747020",
    "id": 93156479,
    "location_subtype": "",
    "month": "2021-06"
  },
  {
    "category": "burglary",
    "location_type": "Force",
    "location": {
      "latitude": "51.902006",
      "street": {
        "id": 708085,
        "name": "On or near Britten Place"
      },
      "longitude": "-2.111505"
    },
    "context": "",
    "outcome_status": {
      "category": "Under investigation",
      "date": "2021-06"
    },
    "persistent_id": "2374ba2a8d51fc139bf63a84d0507e947429e632dadec12ec7fe351b76feefbc",
    "id": 93160355,
    "location_subtype": "",
    "month": "2021-06"
  },
  {
    "category": "burglary",
    "location_type": "Force",
    "location": {
      "latitude": "51.897700",
      "street": {
        "id": 708097,
        "name": "On or near Tennyson Road"
      },
      "longitude": "-2.111581"
    },
    "context": "",
    "outcome_status": {
      "category": "Investigation complete; no suspect identified",
      "date": "2021-06"
    },
    "persistent_id": "98705b26aed7f2460d8ce772315fa154510b8f0566850098a188e1d304ea707b",
    "id": 93158566,
    "location_subtype": "",
    "month": "2021-06"
  },
  {
    "category": "burglary",
    "location_type": "Force",
    "location": {
      "latitude": "51.893750",
      "street": {
        "id": 707977,
        "name": "On or near Lansdown Road"
      },
      "longitude": "-2.093596"
    },
    "context": "",
    "outcome_status": {
      "category": "Under investigation",
      "date": "2021-06"
    },
    "persistent_id": "8866e7ea9f4ef68b43e8599f4523a39a19efe53d864eb2dd0bd0f762650716a4",
    "id": 93156693,
    "location_subtype": "",
    "month": "2021-06"
  },
  {
    "category": "burglary",
    "location_type": "Force",
    "location": {
      "latitude": "51.907251",
      "street": {
        "id": 708581,
        "name": "On or near Russell Place"
      },
      "longitude": "-2.086647"
    },
    "context": "",
    "outcome_status": {
      "category": "Under investigation",
      "date": "2021-06"
    },
    "persistent_id": "233f601cdd4ac34380b007d9664aebac9b02af30527720b996788e4b37a20396",
    "id": 93160579,
    "location_subtype": "",
    "month": "2021-06"
  },
  {
    "category": "burglary",
    "location_type": "Force",
    "location": {
      "latitude": "51.899469",
      "street": {
        "id": 708123,
        "name": "On or near Kipling Road"
      },
      "longitude": "-2.112923"
    },
    "context": "",
    "outcome_status": {
      "category": "Investigation complete; no suspect identified",
      "date": "2021-06"
    },
    "persistent_id": "e485fefa0281c084d59dbf8cbac55f088af012b3e87c2364d7dab20d6883d7ae",
    "id": 93158563,
    "location_subtype": "",
    "month": "2021-06"
  },
  {
    "category": "burglary",
    "location_type": "Force",
    "location": {
      "latitude": "51.905518",
      "street": {
        "id": 708499,
        "name": "On or near Sports/recreation Area"
      },
      "longitude": "-2.105699"
    },
    "context": "",
    "outcome_status": {
      "category": "Investigation complete; no suspect identified",
      "date": "2021-06"
    },
    "persistent_id": "5618162475825b736af0775b811c642281f59fd8997e7c4b30bb6364cf746832",
    "id": 93159678,
    "location_subtype": "",
    "month": "2021-06"
  },
  {
    "category": "burglary",
    "location_type": "Force",
    "location": {
      "latitude": "51.913524",
      "street": {
        "id": 708574,
        "name": "On or near Stanwick Gardens"
      },
      "longitude": "-2.090453"
    },
    "context": "",
    "outcome_status": {
      "category": "Investigation complete; no suspect identified",
      "date": "2021-06"
    },
    "persistent_id": "0a17dea62fff315c1641a701dc4a3731597d7fee73c6dd76115fc98f4c0822e6",
    "id": 93159637,
    "location_subtype": "",
    "month": "2021-06"
  },
  {
    "category": "burglary",
    "location_type": "Force",
    "location": {
      "latitude": "51.909314",
      "street": {
        "id": 708486,
        "name": "On or near Brooklyn Close"
      },
      "longitude": "-2.103164"
    },
    "context": "",
    "outcome_status": {
      "category": "Under investigation",
      "date": "2021-06"
    },
    "persistent_id": "89d92ba921034d08ce8f2ca1966f2df5a76b8e8a5278c534c08757a561409e69",
    "id": 93156552,
    "location_subtype": "",
    "month": "2021-06"
  },
  {
    "category": "burglary",
    "location_type": "Force",
    "location": {
      "latitude": "51.897667",
      "street": {
        "id": 708113,
        "name": "On or near Monks Croft"
      },
      "longitude": "-2.117162"
    },
    "context": "",
    "outcome_status": {
      "category": "Investigation complete; no suspect identified",
      "date": "2021-06"
    },
    "persistent_id": "7a5f06cb70765ee997643bb30b88a0ff6c146fee4ec682abaa3d7da56faae306",
    "id": 93159611,
    "location_subtype": "",
    "month": "2021-06"
  },
  {
    "category": "burglary",
    "location_type": "Force",
    "location": {
      "latitude": "51.909747",
      "street": {
        "id": 708613,
        "name": "On or near Elm Close"
      },
      "longitude": "-2.090954"
    },
    "context": "",
    "outcome_status": {
      "category": "Investigation complete; no suspect identified",
      "date": "2021-06"
    },
    "persistent_id": "6cd0733a983c331af29b1d709f713c4c485493372dbf6e0250f14590c2a53558",
    "id": 93159481,
    "location_subtype": "",
    "month": "2021-06"
  },
  {
    "category": "burglary",
    "location_type": "Force",
    "location": {
      "latitude": "51.916501",
      "street": {
        "id": 708406,
        "name": "On or near Hayden Road"
      },
      "longitude": "-2.110145"
    },
    "context": "",
    "outcome_status": {
      "category": "Under investigation",
      "date": "2021-06"
    },
    "persistent_id": "f5407fd3bedcb4071b4d86ae6cb7e6e7df2fb5b4bdcbf60ee28da62930bbaa78",
    "id": 93158502,
    "location_subtype": "",
    "month": "2021-06"
  },
  {
    "category": "burglary",
    "location_type": "Force",
    "location": {
      "latitude": "51.903235",
      "street": {
        "id": 708061,
        "name": "On or near Yalta Close"
      },
      "longitude": "-2.114328"
    },
    "context": "",
    "outcome_status": {
      "category": "Under investigation",
      "date": "2021-06"
    },
    "persistent_id": "4636339a5b65703135bdb9423267ea7a370256952c25ef061765ef8ad5f4b345",
    "id": 93160801,
    "location_subtype": "",
    "month": "2021-06"
  },
  {
    "category": "burglary",
    "location_type": "Force",
    "location": {
      "latitude": "51.903666",
      "street": {
        "id": 708551,
        "name": "On or near Burton Street"
      },
      "longitude": "-2.083195"
    },
    "context": "",
    "outcome_status": {
      "category": "Under investigation",
      "date": "2021-06"
    },
    "persistent_id": "cfd3f2fdb596bda2d8a7127171989cbd9285c3331710bfb9e1da0bff69cc6ada",
    "id": 93161622,
    "location_subtype": "",
    "month": "2021-06"
  },
  {
    "category": "burglary",
    "location_type": "Force",
    "location": {
      "latitude": "51.903170",
      "street": {
        "id": 708056,
        "name": "On or near Alstone Lane"
      },
      "longitude": "-2.097075"
    },
    "context": "",
    "outcome_status": {
      "category": "Investigation complete; no suspect identified",
      "date": "2021-06"
    },
    "persistent_id": "b8f027860d66f88b89b4367adb288af50fb88dc00f8969ce483b82e3ac75b499",
    "id": 93158919,
    "location_subtype": "",
    "month": "2021-06"
  },
  {
    "category": "burglary",
    "location_type": "Force",
    "location": {
      "latitude": "51.904962",
      "street": {
        "id": 708605,
        "name": "On or near Hereford Place"
      },
      "longitude": "-2.081438"
    },
    "context": "",
    "outcome_status": {
      "category": "Under investigation",
      "date": "2021-06"
    },
    "persistent_id": "a3fda57c27fd1d8079d726a0567d00a8d4d0838601ffded8060e5c1ae0aa6ddd",
    "id": 93159860,
    "location_subtype": "",
    "month": "2021-06"
  },
  {
    "category": "burglary",
    "location_type": "Force",
    "location": {
      "latitude": "51.913788",
      "street": {
        "id": 708390,
        "name": "On or near Parking Area"
      },
      "longitude": "-2.116579"
    },
    "context": "",
    "outcome_status": {
      "category": "Under investigation",
      "date": "2021-06"
    },
    "persistent_id": "68fc3fc338634a42ed489b627a680775f75e3fc51dde3672486bec14dca4f3c9",
    "id": 93160026,
    "location_subtype": "",
    "month": "2021-06"
  },
  {
    "category": "burglary",
    "location_type": "Force",
    "location": {
      "latitude": "51.893750",
      "street": {
        "id": 707977,
        "name": "On or near Lansdown Road"
      },
      "longitude": "-2.093596"
    },
    "context": "",
    "outcome_status": {
      "category": "Under investigation",
      "date": "2021-06"
    },
    "persistent_id": "24f25952551bf7421dc5e94abcb4bd05e42fb5e799e5af0cc833e89138f5ae8d",
    "id": 93156691,
    "location_subtype": "",
    "month": "2021-06"
  },
  {
    "category": "burglary",
    "location_type": "Force",
    "location": {
      "latitude": "51.899733",
      "street": {
        "id": 708224,
        "name": "On or near Pinewood Drive"
      },
      "longitude": "-2.119187"
    },
    "context": "",
    "outcome_status": {
      "category": "Unable to prosecute suspect",
      "date": "2021-06"
    },
    "persistent_id": "8731b978c05aca40e5cebd7b077c6da1dc112d08f9cc2aee4a009548d33afc96",
    "id": 93161207,
    "location_subtype": "",
    "month": "2021-06"
  },
  {
    "category": "burglary",
    "location_type": "Force",
    "location": {
      "latitude": "51.901613",
      "street": {
        "id": 707903,
        "name": "On or near Honeybourne Way"
      },
      "longitude": "-2.086999"
    },
    "context": "",
    "outcome_status": {
      "category": "Under investigation",
      "date": "2021-06"
    },
    "persistent_id": "aafa10e58be20c3252b0b93aa1d66bb0ae9f4d68b34b9bb4149870da943a154d",
    "id": 93161454,
    "location_subtype": "",
    "month": "2021-06"
  },
  {
    "category": "burglary",
    "location_type": "Force",
    "location": {
      "latitude": "51.906997",
      "street": {
        "id": 708458,
        "name": "On or near Netherwood Gardens"
      },
      "longitude": "-2.100673"
    },
    "context": "",
    "outcome_status": {
      "category": "Investigation complete; no suspect identified",
      "date": "2021-06"
    },
    "persistent_id": "d8bf7287e12d9087602963052f39e31588fdf0e5bc424b3478315b2a0591d05b",
    "id": 93156550,
    "location_subtype": "",
    "month": "2021-06"
  },
  {
    "category": "burglary",
    "location_type": "Force",
    "location": {
      "latitude": "51.907849",
      "street": {
        "id": 708467,
        "name": "On or near Lechmere Road"
      },
      "longitude": "-2.113118"
    },
    "context": "",
    "outcome_status": {
      "category": "Investigation complete; no suspect identified",
      "date": "2021-06"
    },
    "persistent_id": "30d5bf446a0492ddb5c204472656e1f9ccff4af3c069522d7f3bde66a9a35eb3",
    "id": 93160583,
    "location_subtype": "",
    "month": "2021-06"
  },
  {
    "category": "criminal-damage-arson",
    "location_type": "Force",
    "location": {
      "latitude": "51.907849",
      "street": {
        "id": 708467,
        "name": "On or near Lechmere Road"
      },
      "longitude": "-2.113118"
    },
    "context": "",
    "outcome_status": {
      "category": "Under investigation",
      "date": "2021-06"
    },
    "persistent_id": "d59f82d0ccba6e0339ad519db69b6b13262e5679b8b283fd0e08223f6566ddc6",
    "id": 93160225,
    "location_subtype": "",
    "month": "2021-06"
  },
  {
    "category": "criminal-damage-arson",
    "location_type": "Force",
    "location": {
      "latitude": "51.898863",
      "street": {
        "id": 708146,
        "name": "On or near Cowper Road"
      },
      "longitude": "-2.117412"
    },
    "context": "",
    "outcome_status": {
      "category": "Under investigation",
      "date": "2021-06"
    },
    "persistent_id": "8f8594ddaf3713463a29730d73a6af8dd8fe3fe196472e2c6682c962cb8db881",
    "id": 93159569,
    "location_subtype": "",
    "month": "2021-06"
  },
  {
    "category": "criminal-damage-arson",
    "location_type": "Force",
    "location": {
      "latitude": "51.901805",
      "street": {
        "id": 707902,
        "name": "On or near Jessop Avenue"
      },
      "longitude": "-2.083409"
    },
    "context": "",
    "outcome_status": {
      "category": "Investigation complete; no suspect identified",
      "date": "2021-06"
    },
    "persistent_id": "9ff626895e5b604164afa2a785422ee7ab3f64a66ea76fa2e8c91e0993eea90a",
    "id": 93160528,
    "location_subtype": "",
    "month": "2021-06"
  },
  {
    "category": "criminal-damage-arson",
    "location_type": "Force",
    "location": {
      "latitude": "51.906046",
      "street": {
        "id": 708639,
        "name": "On or near Supermarket"
      },
      "longitude": "-2.086804"
    },
    "context": "",
    "outcome_status": {
      "category": "Investigation complete; no suspect identified",
      "date": "2021-06"
    },
    "persistent_id": "a3b597ffd0ef4177e19cac15a11b0c634ad3c127ddc9beee6d6a9b3c125f014c",
    "id": 93160259,
    "location_subtype": "",
    "month": "2021-06"
  },
  {
    "category": "criminal-damage-arson",
    "location_type": "Force",
    "location": {
      "latitude": "51.894878",
      "street": {
        "id": 708055,
        "name": "On or near Lansdown Crescent Lane"
      },
      "longitude": "-2.088236"
    },
    "context": "",
    "outcome_status": {
      "category": "Unable to prosecute suspect",
      "date": "2021-06"
    },
    "persistent_id": "132ef14652f17bacaac08a9f8297fb3affccb70958676d5a1fb37d61cc732a68",
    "id": 93160020,
    "location_subtype": "",
    "month": "2021-06"
  },
  {
    "category": "criminal-damage-arson",
    "location_type": "Force",
    "location": {
      "latitude": "51.910505",
      "street": {
        "id": 708611,
        "name": "On or near Elmfield Road"
      },
      "longitude": "-2.087103"
    },
    "context": "",
    "outcome_status": {
      "category": "Unable to prosecute suspect",
      "date": "2021-06"
    },
    "persistent_id": "a7ae2769863991f403cb14142864687e0e8b363df6f454043e6a7ef3c2e1d79d",
    "id": 93159813,
    "location_subtype": "",
    "month": "2021-06"
  },
  {
    "category": "criminal-damage-arson",
    "location_type": "Force",
    "location": {
      "latitude": "51.906917",
      "street": {
        "id": 708502,
        "name": "On or near Hawthorn Road"
      },
      "longitude": "-2.110107"
    },
    "context": "",
    "outcome_status": {
      "category": "Offender given a caution",
      "date": "2021-06"
    },
    "persistent_id": "6c1ecde2cb5dbf3f56b062e1838777b48623094c069ce954b328eddff46fb460",
    "id": 93159790,
    "location_subtype": "",
    "month": "2021-06"
  },
  {
    "category": "criminal-damage-arson",
    "location_type": "Force",
    "location": {
      "latitude": "51.908396",
      "street": {
        "id": 708385,
        "name": "On or near Dulverton Close"
      },
      "longitude": "-2.123150"
    },
    "context": "",
    "outcome_status": {
      "category": "Under investigation",
      "date": "2021-06"
    },
    "persistent_id": "8134df93f3e60663653a0f6bc47b0f25102e74d3643dafef029f8e47041a8a64",
    "id": 93160629,
    "location_subtype": "",
    "month": "2021-06"
  },
  {
    "category": "criminal-damage-arson",
    "location_type": "Force",
    "location": {
      "latitude": "51.899469",
      "street": {
        "id": 708123,
        "name": "On or near Kipling Road"
      },
      "longitude": "-2.112923"
    },
    "context": "",
    "outcome_status": {
      "category": "Under investigation",
      "date": "2021-06"
    },
    "persistent_id": "e121ae92715e848d531e25514ee2a75453d85aba880d16538c3aa3f2c3b60a35",
    "id": 93158882,
    "location_subtype": "",
    "month": "2021-06"
  },
  {
    "category": "criminal-damage-arson",
    "location_type": "Force",
    "location": {
      "latitude": "51.904987",
      "street": {
        "id": 708386,
        "name": "On or near Aston Grove"
      },
      "longitude": "-2.124710"
    },
    "context": "",
    "outcome_status": {
      "category": "Under investigation",
      "date": "2021-06"
    },
    "persistent_id": "f8d49d955426cb526beb8e8614fbc4584c008a528f9ff6c9db6235760cd18479",
    "id": 93156612,
    "location_subtype": "",
    "month": "2021-06"
  },
  {
    "category": "criminal-damage-arson",
    "location_type": "Force",
    "location": {
      "latitude": "51.907909",
      "street": {
        "id": 708449,
        "name": "On or near Orchard Way"
      },
      "longitude": "-2.106315"
    },
    "context": "",
    "outcome_status": {
      "category": "Under investigation",
      "date": "2021-06"
    },
    "persistent_id": "891ce7a721bcf1697c1ff54d33a50984617860bb58d4d6b3743347799faccf92",
    "id": 93156475,
    "location_subtype": "",
    "month": "2021-06"
  },
  {
    "category": "criminal-damage-arson",
    "location_type": "Force",
    "location": {
      "latitude": "51.898274",
      "street": {
        "id": 708116,
        "name": "On or near Libertus Road"
      },
      "longitude": "-2.103066"
    },
    "context": "",
    "outcome_status": {
      "category": "Under investigation",
      "date": "2021-06"
    },
    "persistent_id": "dc33d9a7807eb566fa358a8dc0cfb0d8ad41f37bc6d727b203fe859979ee080e",
    "id": 93161347,
    "location_subtype": "",
    "month": "2021-06"
  },
  {
    "category": "criminal-damage-arson",
    "location_type": "Force",
    "location": {
      "latitude": "51.901376",
      "street": {
        "id": 708081,
        "name": "On or near Devon Avenue"
      },
      "longitude": "-2.102376"
    },
    "context": "",
    "outcome_status": {
      "category": "Under investigation",
      "date": "2021-06"
    },
    "persistent_id": "b9ff9609479713db312aea505a854a35277751c4fe90cb854f57f8d339a12066",
    "id": 93159416,
    "location_subtype": "",
    "month": "2021-06"
  },
  {
    "category": "criminal-damage-arson",
    "location_type": "Force",
    "location": {
      "latitude": "51.907288",
      "street": {
        "id": 708618,
        "name": "On or near Cleeveland Street"
      },
      "longitude": "-2.085629"
    },
    "context": "",
    "outcome_status": {
      "category": "Under investigation",
      "date": "2021-06"
    },
    "persistent_id": "9df56ce786e1d43c8dfc33665f2ba51aa985420cd91a3cc3b9ffc256f9c03bb4",
    "id": 93161731,
    "location_subtype": "",
    "month": "2021-06"
  },
  {
    "category": "criminal-damage-arson",
    "location_type": "Force",
    "location": {
      "latitude": "51.896721",
      "street": {
        "id": 707994,
        "name": "On or near Douro Road"
      },
      "longitude": "-2.089300"
    },
    "context": "",
    "outcome_status": {
      "category": "Investigation complete; no suspect identified",
      "date": "2021-06"
    },
    "persistent_id": "fcc6be3d7c4e503fdf341cb12730a2ff55cc1aa7beb4862797f86cd61ad1c5f8",
    "id": 93158215,
    "location_subtype": "",
    "month": "2021-06"
  },
  {
    "category": "criminal-damage-arson",
    "location_type": "Force",
    "location": {
      "latitude": "51.899684",
      "street": {
        "id": 708103,
        "name": "On or near Shelley Avenue"
      },
      "longitude": "-2.113955"
    },
    "context": "",
    "outcome_status": {
      "category": "Unable to prosecute suspect",
      "date": "2021-06"
    },
    "persistent_id": "a33e848cb68d589d61998523b37275ad88f5530e54a83b30edf621a74a0170c9",
    "id": 93158980,
    "location_subtype": "",
    "month": "2021-06"
  },
  {
    "category": "criminal-damage-arson",
    "location_type": "Force",
    "location": {
      "latitude": "51.908235",
      "street": {
        "id": 708493,
        "name": "On or near Barbridge Road"
      },
      "longitude": "-2.113643"
    },
    "context": "",
    "outcome_status": {
      "category": "Investigation complete; no suspect identified",
      "date": "2021-06"
    },
    "persistent_id": "e138e313900fe419199ab52af01cd4039013c9aae614dc3855350653327fbd14",
    "id": 93158976,
    "location_subtype": "",
    "month": "2021-06"
  },
  {
    "category": "criminal-damage-arson",
    "location_type": "Force",
    "location": {
      "latitude": "51.905647",
      "street": {
        "id": 708530,
        "name": "On or near St Paul's Street North"
      },
      "longitude": "-2.078227"
    },
    "context": "",
    "outcome_status": {
      "category": "Investigation complete; no suspect identified",
      "date": "2021-06"
    },
    "persistent_id": "f36f747679bcd31966ee5a04308cb614ab5cb4092b6c93d7a2f6b77bc6e4e55a",
    "id": 93156120,
    "location_subtype": "",
    "month": "2021-06"
  },
  {
    "category": "criminal-damage-arson",
    "location_type": "Force",
    "location": {
      "latitude": "51.895934",
      "street": {
        "id": 707949,
        "name": "On or near Royal Parade Mews"
      },
      "longitude": "-2.082745"
    },
    "context": "",
    "outcome_status": {
      "category": "Investigation complete; no suspect identified",
      "date": "2021-06"
    },
    "persistent_id": "2d9aafac3d11af7fbc6324d29442765d5ed3e286b35eceef7b4ab16eba1b832d",
    "id": 93156024,
    "location_subtype": "",
    "month": "2021-06"
  },
  {
    "category": "criminal-damage-arson",
    "location_type": "Force",
    "location": {
      "latitude": "51.893899",
      "street": {
        "id": 708133,
        "name": "On or near Granley Road"
      },
      "longitude": "-2.108549"
    },
    "context": "",
    "outcome_status": {
      "category": "Unable to prosecute suspect",
      "date": "2021-06"
    },
    "persistent_id": "0a653ad29729334d29bf04ac867271d84e053a70c0125d0671b0cdaff97cdd13",
    "id": 93156742,
    "location_subtype": "",
    "month": "2021-06"
  },
  {
    "category": "criminal-damage-arson",
    "location_type": "Force",
    "location": {
      "latitude": "51.893899",
      "street": {
        "id": 708133,
        "name": "On or near Granley Road"
      },
      "longitude": "-2.108549"
    },
    "context": "",
    "outcome_status": {
      "category": "Unable to prosecute suspect",
      "date": "2021-06"
    },
    "persistent_id": "47e6b7d70037915e82f6260973f6a9df941b2b4befd5b747e002f64224375ab6",
    "id": 93156735,
    "location_subtype": "",
    "month": "2021-06"
  },
  {
    "category": "criminal-damage-arson",
    "location_type": "Force",
    "location": {
      "latitude": "51.909314",
      "street": {
        "id": 708486,
        "name": "On or near Brooklyn Close"
      },
      "longitude": "-2.103164"
    },
    "context": "",
    "outcome_status": {
      "category": "Investigation complete; no suspect identified",
      "date": "2021-06"
    },
    "persistent_id": "18d0e34a3fd623400b00daa0296107fbbbb0ea1301c9667a2b642d4612af26d8",
    "id": 93156557,
    "location_subtype": "",
    "month": "2021-06"
  },
  {
    "category": "criminal-damage-arson",
    "location_type": "Force",
    "location": {
      "latitude": "51.909314",
      "street": {
        "id": 708486,
        "name": "On or near Brooklyn Close"
      },
      "longitude": "-2.103164"
    },
    "context": "",
    "outcome_status": {
      "category": "Awaiting court outcome",
      "date": "2021-06"
    },
    "persistent_id": "7a0dfab780476f745430f77a2a8f277761602e45379e30cad453e2cedb6e252d",
    "id": 93156554,
    "location_subtype": "",
    "month": "2021-06"
  },
  {
    "category": "criminal-damage-arson",
    "location_type": "Force",
    "location": {
      "latitude": "51.910771",
      "street": {
        "id": 708598,
        "name": "On or near Malvern Street"
      },
      "longitude": "-2.091756"
    },
    "context": "",
    "outcome_status": {
      "category": "Under investigation",
      "date": "2021-06"
    },
    "persistent_id": "6829986afbf71af9a88844545eef6a7d8f30c49791b8b1e6df718ecaeffe70c1",
    "id": 93159511,
    "location_subtype": "",
    "month": "2021-06"
  },
  {
    "category": "criminal-damage-arson",
    "location_type": "Force",
    "location": {
      "latitude": "51.910295",
      "street": {
        "id": 708447,
        "name": "On or near Pennington Court"
      },
      "longitude": "-2.112659"
    },
    "context": "",
    "outcome_status": {
      "category": "Unable to prosecute suspect",
      "date": "2021-06"
    },
    "persistent_id": "270f4a4450fd0368a4d73fcbb54513a6b31ae47e3c4fdd9e18efa3bf09880f51",
    "id": 93155642,
    "location_subtype": "",
    "month": "2021-06"
  },
  {
    "category": "criminal-damage-arson",
    "location_type": "Force",
    "location": {
      "latitude": "51.895934",
      "street": {
        "id": 707949,
        "name": "On or near Royal Parade Mews"
      },
      "longitude": "-2.082745"
    },
    "context": "",
    "outcome_status": {
      "category": "Investigation complete; no suspect identified",
      "date": "2021-06"
    },
    "persistent_id": "38e8537d836b5b93620c98f83b14a800cb2427130e29cd15d108176de451cfcc",
    "id": 93155237,
    "location_subtype": "",
    "month": "2021-06"
  },
  {
    "category": "criminal-damage-arson",
    "location_type": "Force",
    "location": {
      "latitude": "51.906274",
      "street": {
        "id": 708432,
        "name": "On or near Wharfdale Square"
      },
      "longitude": "-2.104306"
    },
    "context": "",
    "outcome_status": {
      "category": "Investigation complete; no suspect identified",
      "date": "2021-06"
    },
    "persistent_id": "a0ea2ea68da3b64ca6c52c6beff5266374982d6621e4386824bbc84f8518ceac",
    "id": 93155161,
    "location_subtype": "",
    "month": "2021-06"
  },
  {
    "category": "criminal-damage-arson",
    "location_type": "Force",
    "location": {
      "latitude": "51.901168",
      "street": {
        "id": 707891,
        "name": "On or near St James' Square"
      },
      "longitude": "-2.080879"
    },
    "context": "",
    "outcome_status": {
      "category": "Investigation complete; no suspect identified",
      "date": "2021-06"
    },
    "persistent_id": "091c39e424f28e574430d1bd61e9c76068f5b66cadffe20c3f7ef2bfc5413fc6",
    "id": 93163217,
    "location_subtype": "",
    "month": "2021-06"
  },
  {
    "category": "criminal-damage-arson",
    "location_type": "Force",
    "location": {
      "latitude": "51.902534",
      "street": {
        "id": 708077,
        "name": "On or near Evington Road"
      },
      "longitude": "-2.114776"
    },
    "context": "",
    "outcome_status": {
      "category": "Investigation complete; no suspect identified",
      "date": "2021-06"
    },
    "persistent_id": "9e5fbd11385e1b3e666d2cc56af2af44ec08a3d66d49213d2c6cefba0808a062",
    "id": 93163211,
    "location_subtype": "",
    "month": "2021-06"
  },
  {
    "category": "criminal-damage-arson",
    "location_type": "Force",
    "location": {
      "latitude": "51.906587",
      "street": {
        "id": 708620,
        "name": "On or near Charles Street"
      },
      "longitude": "-2.085293"
    },
    "context": "",
    "outcome_status": {
      "category": "Under investigation",
      "date": "2021-06"
    },
    "persistent_id": "f4ee00f9252ed700164c02398b6ed1045d0452934c132d78e20757e94a1e554c",
    "id": 93159749,
    "location_subtype": "",
    "month": "2021-06"
  },
  {
    "category": "criminal-damage-arson",
    "location_type": "Force",
    "location": {
      "latitude": "51.904081",
      "street": {
        "id": 708604,
        "name": "On or near High Street"
      },
      "longitude": "-2.081553"
    },
    "context": "",
    "outcome_status": {
      "category": "Investigation complete; no suspect identified",
      "date": "2021-06"
    },
    "persistent_id": "4f49eb7be589bb309ab7c7502b00ae535b9cf27ae70ffce012c7fec16daa94fb",
    "id": 93162961,
    "location_subtype": "",
    "month": "2021-06"
  },
  {
    "category": "criminal-damage-arson",
    "location_type": "Force",
    "location": {
      "latitude": "51.911490",
      "street": {
        "id": 708433,
        "name": "On or near Welch Road"
      },
      "longitude": "-2.113142"
    },
    "context": "",
    "outcome_status": {
      "category": "Investigation complete; no suspect identified",
      "date": "2021-06"
    },
    "persistent_id": "d2f94074cac297918ab801578a166cd9252e58143aa1ce24c8221d03b8fe5a9f",
    "id": 93162802,
    "location_subtype": "",
    "month": "2021-06"
  },
  {
    "category": "criminal-damage-arson",
    "location_type": "Force",
    "location": {
      "latitude": "51.901168",
      "street": {
        "id": 707891,
        "name": "On or near St James' Square"
      },
      "longitude": "-2.080879"
    },
    "context": "",
    "outcome_status": {
      "category": "Investigation complete; no suspect identified",
      "date": "2021-06"
    },
    "persistent_id": "a9ec98b67960ace8fb9a0073690f40b5852e52d3b8c6473d1e984e53db547599",
    "id": 93161968,
    "location_subtype": "",
    "month": "2021-06"
  },
  {
    "category": "criminal-damage-arson",
    "location_type": "Force",
    "location": {
      "latitude": "51.899350",
      "street": {
        "id": 707942,
        "name": "On or near St George's Road"
      },
      "longitude": "-2.083579"
    },
    "context": "",
    "outcome_status": {
      "category": "Investigation complete; no suspect identified",
      "date": "2021-06"
    },
    "persistent_id": "4957c12c7b018353b8d6b20bf7c3547a1e116e60787abb9c3c6fc628240454e4",
    "id": 93161930,
    "location_subtype": "",
    "month": "2021-06"
  },
  {
    "category": "criminal-damage-arson",
    "location_type": "Force",
    "location": {
      "latitude": "51.894985",
      "street": {
        "id": 707981,
        "name": "On or near Lansdown Parade"
      },
      "longitude": "-2.090212"
    },
    "context": "",
    "outcome_status": {
      "category": "Unable to prosecute suspect",
      "date": "2021-06"
    },
    "persistent_id": "70f7e48d7fa00faf96fe5e5fac1fd54e2d16a1890f730bdbdeec927f13c87890",
    "id": 93161102,
    "location_subtype": "",
    "month": "2021-06"
  },
  {
    "category": "criminal-damage-arson",
    "location_type": "Force",
    "location": {
      "latitude": "51.901457",
      "street": {
        "id": 708076,
        "name": "On or near Goldsmith Close"
      },
      "longitude": "-2.112797"
    },
    "context": "",
    "outcome_status": {
      "category": "Investigation complete; no suspect identified",
      "date": "2021-06"
    },
    "persistent_id": "50c964e6896f8d2761c1b5c93f5f33ca314adeb6246a5bead1b1939c6c595ab1",
    "id": 93155579,
    "location_subtype": "",
    "month": "2021-06"
  },
  {
    "category": "criminal-damage-arson",
    "location_type": "Force",
    "location": {
      "latitude": "51.904081",
      "street": {
        "id": 708604,
        "name": "On or near High Street"
      },
      "longitude": "-2.081553"
    },
    "context": "",
    "outcome_status": {
      "category": "Investigation complete; no suspect identified",
      "date": "2021-06"
    },
    "persistent_id": "0d5b85ab9434c2879fdc8610f58660cd9159255c864714bd4c6cbd3a70e1c885",
    "id": 93160796,
    "location_subtype": "",
    "month": "2021-06"
  },
  {
    "category": "criminal-damage-arson",
    "location_type": "Force",
    "location": {
      "latitude": "51.897101",
      "street": {
        "id": 708092,
        "name": "On or near Pedestrian Subway"
      },
      "longitude": "-2.117189"
    },
    "context": "",
    "outcome_status": {
      "category": "Investigation complete; no suspect identified",
      "date": "2021-06"
    },
    "persistent_id": "565763db334be0f9a7f38669b0677527a27490c83f4ef4de72b3b729660b6866",
    "id": 93160785,
    "location_subtype": "",
    "month": "2021-06"
  },
  {
    "category": "criminal-damage-arson",
    "location_type": "Force",
    "location": {
      "latitude": "51.903067",
      "street": {
        "id": 707905,
        "name": "On or near High Street"
      },
      "longitude": "-2.079022"
    },
    "context": "",
    "outcome_status": {
      "category": "Under investigation",
      "date": "2021-06"
    },
    "persistent_id": "e164bd9a8bc07459d9b2cc6a08c55bbca6b1bde46b3a259b58395b3a22633bda",
    "id": 93160092,
    "location_subtype": "",
    "month": "2021-06"
  },
  {
    "category": "criminal-damage-arson",
    "location_type": "Force",
    "location": {
      "latitude": "51.898608",
      "street": {
        "id": 708107,
        "name": "On or near Roman Road"
      },
      "longitude": "-2.101178"
    },
    "context": "",
    "outcome_status": {
      "category": "Under investigation",
      "date": "2021-06"
    },
    "persistent_id": "c448b01666b4a2155102dbee55270531879efe1f9a2af243b2529ea5ba5ebcb9",
    "id": 93156016,
    "location_subtype": "",
    "month": "2021-06"
  },
  {
    "category": "criminal-damage-arson",
    "location_type": "Force",
    "location": {
      "latitude": "51.898608",
      "street": {
        "id": 708107,
        "name": "On or near Roman Road"
      },
      "longitude": "-2.101178"
    },
    "context": "",
    "outcome_status": {
      "category": "Under investigation",
      "date": "2021-06"
    },
    "persistent_id": "1ddfbdd0f4b7f63a19537b2c27ab41bf0564732167ed145bce12aa77479b4933",
    "id": 93156014,
    "location_subtype": "",
    "month": "2021-06"
  },
  {
    "category": "criminal-damage-arson",
    "location_type": "Force",
    "location": {
      "latitude": "51.902057",
      "street": {
        "id": 708060,
        "name": "On or near Parking Area"
      },
      "longitude": "-2.114455"
    },
    "context": "",
    "outcome_status": {
      "category": "Under investigation",
      "date": "2021-06"
    },
    "persistent_id": "6a3bf8e39c71f40d0a2e89783389ab406ebb8b709b28ec7a4493e8facf716843",
    "id": 93155480,
    "location_subtype": "",
    "month": "2021-06"
  },
  {
    "category": "criminal-damage-arson",
    "location_type": "Force",
    "location": {
      "latitude": "51.902057",
      "street": {
        "id": 708060,
        "name": "On or near Parking Area"
      },
      "longitude": "-2.114455"
    },
    "context": "",
    "outcome_status": {
      "category": "Under investigation",
      "date": "2021-06"
    },
    "persistent_id": "cf852347fa0848e639b72f0fbb570997c1e58ca1593912434d673b4416c136bb",
    "id": 93155478,
    "location_subtype": "",
    "month": "2021-06"
  },
  {
    "category": "criminal-damage-arson",
    "location_type": "Force",
    "location": {
      "latitude": "51.906854",
      "street": {
        "id": 708641,
        "name": "On or near Petrol Station"
      },
      "longitude": "-2.088245"
    },
    "context": "",
    "outcome_status": {
      "category": "Under investigation",
      "date": "2021-06"
    },
    "persistent_id": "45150882e080363d91cbc836ab39368bd54dc5b3b32c110bb87c113444bdae76",
    "id": 93155387,
    "location_subtype": "",
    "month": "2021-06"
  },
  {
    "category": "criminal-damage-arson",
    "location_type": "Force",
    "location": {
      "latitude": "51.911134",
      "street": {
        "id": 708360,
        "name": "On or near Beaumont Drive"
      },
      "longitude": "-2.118738"
    },
    "context": "",
    "outcome_status": {
      "category": "Under investigation",
      "date": "2021-06"
    },
    "persistent_id": "14f87efe55d70f9d3c927dc42208eeb00b05b8bcd90a00edd9a5976781a646f1",
    "id": 93158532,
    "location_subtype": "",
    "month": "2021-06"
  },
  {
    "category": "drugs",
    "location_type": "Force",
    "location": {
      "latitude": "51.898899",
      "street": {
        "id": 708109,
        "name": "On or near Pitman Road"
      },
      "longitude": "-2.116729"
    },
    "context": "",
    "outcome_status": {
      "category": "Offender given a drugs possession warning",
      "date": "2021-06"
    },
    "persistent_id": "66fae69b7b3a56dc1fb7f44b40f9b848fa7a6cc339cad98a8b88797b522f1745",
    "id": 93155947,
    "location_subtype": "",
    "month": "2021-06"
  },
  {
    "category": "drugs",
    "location_type": "Force",
    "location": {
      "latitude": "51.897378",
      "street": {
        "id": 708167,
        "name": "On or near Queen's Road"
      },
      "longitude": "-2.098850"
    },
    "context": "",
    "outcome_status": {
      "category": "Offender given a drugs possession warning",
      "date": "2021-06"
    },
    "persistent_id": "d07964fbd42c8bf5d073746cc87ffaec6c17e328ec1b9516eb0a1e70662997cd",
    "id": 93160569,
    "location_subtype": "",
    "month": "2021-06"
  },
  {
    "category": "drugs",
    "location_type": "Force",
    "location": {
      "latitude": "51.899262",
      "street": {
        "id": 707948,
        "name": "On or near Royal Well Lane"
      },
      "longitude": "-2.080556"
    },
    "context": "",
    "outcome_status": {
      "category": "Under investigation",
      "date": "2021-06"
    },
    "persistent_id": "24e1889247bd66734d9be88cba8e475b98c24d5a57aebcab3468d594976b3c17",
    "id": 93156027,
    "location_subtype": "",
    "month": "2021-06"
  },
  {
    "category": "drugs",
    "location_type": "Force",
    "location": {
      "latitude": "51.901634",
      "street": {
        "id": 708074,
        "name": "On or near Hamlet Close"
      },
      "longitude": "-2.115414"
    },