[
  {
    "category": "anti-social-behaviour",
    "location_type": "Force",
    "location": {
      "latitude": "51.912109",
      "street": {
        "id": 708468,
        "name": "On or near Kingsmead Road"
      },
      "longitude": "-2.104581"
    },
    "context": "",
    "outcome_status": null,
    "persistent_id": "",
    "id": 89288564,
    "location_subtype": "",
    "month": "2020-12"
  },
  {
    "category": "anti-social-behaviour",
    "location_type": "Force",
    "location": {
      "latitude": "51.903666",
      "street": {
        "id": 708551,
        "name": "On or near Burton Street"
      },
      "longitude": "-2.083195"
    },
    "context": "",
    "outcome_status": null,
    "persistent_id": "",
    "id": 89288557,
    "location_subtype": "",
    "month": "2020-12"
  },
  {
    "category": "anti-social-behaviour",
    "location_type": "Force",
    "location": {
      "latitude": "51.898608",
      "street": {
        "id": 708107,
        "name": "On or near Roman Road"
      },
      "longitude": "-2.101178"
    },
    "context": "",
    "outcome_status": null,
    "persistent_id": "",
    "id": 89288579,
    "location_subtype": "",
    "month": "2020-12"
  },
  {
    "category": "anti-social-behaviour",
    "location_type": "Force",
    "location": {
      "latitude": "51.894878",
      "street": {
        "id": 708055,
        "name": "On or near Lansdown Crescent Lane"
      },
      "longitude": "-2.088236"
    },
    "context": "",
    "outcome_status": null,
    "persistent_id": "",
    "id": 89288571,
    "location_subtype": "",
    "month": "2020-12"
  },
  {
    "category": "anti-social-behaviour",
    "location_type": "Force",
    "location": {
      "latitude": "51.906587",
      "street": {
        "id": 708620,
        "name": "On or near Charles Street"
      },
      "longitude": "-2.085293"
    },
    "context": "",
    "outcome_status": null,
    "persistent_id": "",
    "id": 89288549,
    "location_subtype": "",
    "month": "2020-12"
  },
  {
    "category": "anti-social-behaviour",
    "location_type": "Force",
    "location": {
      "latitude": "51.903170",
      "street": {
        "id": 708056,
        "name": "On or near Alstone Lane"
      },
      "longitude": "-2.097075"
    },
    "context": "",
    "outcome_status": null,
    "persistent_id": "",
    "id": 89290112,
    "location_subtype": "",
    "month": "2020-12"
  },
  {
    "category": "anti-social-behaviour",
    "location_type": "Force",
    "location": {
      "latitude": "51.894878",
      "street": {
        "id": 708055,
        "name": "On or near Lansdown Crescent Lane"
      },
      "longitude": "-2.088236"
    },
    "context": "",
    "outcome_status": null,
    "persistent_id": "",
    "id": 89290099,
    "location_subtype": "",
    "month": "2020-12"
  },
  {
    "category": "anti-social-behaviour",
    "location_type": "Force",
    "location": {
      "latitude": "51.895133",
      "street": {
        "id": 707919,
        "name": "On or near Queens Lane"
      },
      "longitude": "-2.084371"
    },
    "context": "",
    "outcome_status": null,
    "persistent_id": "",
    "id": 89290090,
    "location_subtype": "",
    "month": "2020-12"
  },
  {
    "category": "anti-social-behaviour",
    "location_type": "Force",
    "location": {
      "latitude": "51.914793",
      "street": {
        "id": 708419,
        "name": "On or near Shopping Area"
      },
      "longitude": "-2.099557"
    },
    "context": "",
    "outcome_status": null,
    "persistent_id": "",
    "id": 89290042,
    "location_subtype": "",
    "month": "2020-12"
  },
  {
    "category": "anti-social-behaviour",
    "location_type": "Force",
    "location": {
      "latitude": "51.914793",
      "street": {
        "id": 708419,
        "name": "On or near Shopping Area"
      },
      "longitude": "-2.099557"
    },
    "context": "",
    "outcome_status": null,
    "persistent_id": "",
    "id": 89290040,
    "location_subtype": "",
    "month": "2020-12"
  },
  {
    "category": "anti-social-behaviour",
    "location_type": "Force",
    "location": {
      "latitude": "51.903813",
      "street": {
        "id": 708481,
        "name": "On or near Clevedon Square"
      },
      "longitude": "-2.101698"
    },
    "context": "",
    "outcome_status": null,
    "persistent_id": "",
    "id": 89290027,
    "location_subtype": "",
    "month": "2020-12"
  },
  {
    "category": "anti-social-behaviour",
    "location_type": "Force",
    "location": {
      "latitude": "51.909738",
      "street": {
        "id": 708497,
        "name": "On or near Sports/recreation Area"
      },
      "longitude": "-2.111393"
    },
    "context": "",
    "outcome_status": null,
    "persistent_id": "",
    "id": 89290010,
    "location_subtype": "",
    "month": "2020-12"
  },
  {
    "category": "anti-social-behaviour",
    "location_type": "Force",
    "location": {
      "latitude": "51.896770",
      "street": {
        "id": 707991,
        "name": "On or near Eldorado Road"
      },
      "longitude": "-2.095317"
    },
    "context": "",
    "outcome_status": null,
    "persistent_id": "",
    "id": 89290004,
    "location_subtype": "",
    "month": "2020-12"
  },
  {
    "category": "anti-social-behaviour",
    "location_type": "Force",
    "location": {
      "latitude": "51.902001",
      "street": {
        "id": 708090,
        "name": "On or near Hospital"
      },
      "longitude": "-2.116984"
    },
    "context": "",
    "outcome_status": null,
    "persistent_id": "",
    "id": 89289983,
    "location_subtype": "",
    "month": "2020-12"
  },
  {
    "category": "anti-social-behaviour",
    "location_type": "Force",
    "location": {
      "latitude": "51.907796",
      "street": {
        "id": 708460,
        "name": "On or near Montreal Drive"
      },
      "longitude": "-2.111330"
    },
    "context": "",
    "outcome_status": null,
    "persistent_id": "",
    "id": 89289977,
    "location_subtype": "",
    "month": "2020-12"
  },
  {
    "category": "anti-social-behaviour",
    "location_type": "Force",
    "location": {
      "latitude": "51.911262",
      "street": {
        "id": 708424,
        "name": "On or near St Peter's Square"
      },
      "longitude": "-2.097063"
    },
    "context": "",
    "outcome_status": null,
    "persistent_id": "",
    "id": 89289965,
    "location_subtype": "",
    "month": "2020-12"
  },
  {
    "category": "anti-social-behaviour",
    "location_type": "Force",
    "location": {
      "latitude": "51.914246",
      "street": {
        "id": 708418,
        "name": "On or near Shopping Area"
      },
      "longitude": "-2.117060"
    },
    "context": "",
    "outcome_status": null,
    "persistent_id": "",
    "id": 89289933,
    "location_subtype": "",
    "month": "2020-12"
  },
  {
    "category": "anti-social-behaviour",
    "location_type": "Force",
    "location": {
      "latitude": "51.904271",
      "street": {
        "id": 708491,
        "name": "On or near Bedford Avenue"
      },
      "longitude": "-2.102789"
    },
    "context": "",
    "outcome_status": null,
    "persistent_id": "",
    "id": 89290296,
    "location_subtype": "",
    "month": "2020-12"
  },
  {
    "category": "anti-social-behaviour",
    "location_type": "Force",
    "location": {
      "latitude": "51.912367",
      "street": {
        "id": 708426,
        "name": "On or near Brook Road"
      },
      "longitude": "-2.097153"
    },
    "context": "",
    "outcome_status": null,
    "persistent_id": "",
    "id": 89289901,
    "location_subtype": "",
    "month": "2020-12"
  },
  {
    "category": "anti-social-behaviour",
    "location_type": "Force",
    "location": {
      "latitude": "51.909533",
      "street": {
        "id": 708601,
        "name": "On or near Hope Street"
      },
      "longitude": "-2.089137"
    },
    "context": "",
    "outcome_status": null,
    "persistent_id": "",
    "id": 89289900,
    "location_subtype": "",
    "month": "2020-12"
  },
  {
    "category": "anti-social-behaviour",
    "location_type": "Force",
    "location": {
      "latitude": "51.903666",
      "street": {
        "id": 708551,
        "name": "On or near Burton Street"
      },
      "longitude": "-2.083195"
    },
    "context": "",
    "outcome_status": null,
    "persistent_id": "",
    "id": 89289868,
    "location_subtype": "",
    "month": "2020-12"
  },
  {
    "category": "anti-social-behaviour",
    "location_type": "Force",
    "location": {
      "latitude": "51.912832",
      "street": {
        "id": 708475,
        "name": "On or near Frank Brookes Road"
      },
      "longitude": "-2.101123"
    },
    "context": "",
    "outcome_status": null,
    "persistent_id": "",
    "id": 89289886,
    "location_subtype": "",
    "month": "2020-12"
  },
  {
    "category": "anti-social-behaviour",
    "location_type": "Force",
    "location": {
      "latitude": "51.898042",
      "street": {
        "id": 708221,
        "name": "On or near Sotherby Drive"
      },
      "longitude": "-2.120055"
    },
    "context": "",
    "outcome_status": null,
    "persistent_id": "",
    "id": 89289876,
    "location_subtype": "",
    "month": "2020-12"
  },
  {
    "category": "anti-social-behaviour",
    "location_type": "Force",
    "location": {
      "latitude": "51.903666",
      "street": {
        "id": 708551,
        "name": "On or near Burton Street"
      },
      "longitude": "-2.083195"
    },
    "context": "",
    "outcome_status": null,
    "persistent_id": "",
    "id": 89289859,
    "location_subtype": "",
    "month": "2020-12"
  },
  {
    "category": "anti-social-behaviour",
    "location_type": "Force",
    "location": {
      "latitude": "51.904414",
      "street": {
        "id": 708600,
        "name": "On or near King Street"
      },
      "longitude": "-2.080289"
    },
    "context": "",
    "outcome_status": null,
    "persistent_id": "",
    "id": 89289857,
    "location_subtype": "",
    "month": "2020-12"
  },
  {
    "category": "anti-social-behaviour",
    "location_type": "Force",
    "location": {
      "latitude": "51.903666",
      "street": {
        "id": 708551,
        "name": "On or near Burton Street"
      },
      "longitude": "-2.083195"
    },
    "context": "",
    "outcome_status": null,
    "persistent_id": "",
    "id": 89289847,
    "location_subtype": "",
    "month": "2020-12"
  },
  {
    "category": "anti-social-behaviour",
    "location_type": "Force",
    "location": {
      "latitude": "51.895133",
      "street": {
        "id": 707919,
        "name": "On or near Queens Lane"
      },
      "longitude": "-2.084371"
    },
    "context": "",
    "outcome_status": null,
    "persistent_id": "",
    "id": 89289844,
    "location_subtype": "",
    "month": "2020-12"
  },
  {
    "category": "anti-social-behaviour",
    "location_type": "Force",
    "location": {
      "latitude": "51.909533",
      "street": {
        "id": 708601,
        "name": "On or near Hope Street"
      },
      "longitude": "-2.089137"
    },
    "context": "",
    "outcome_status": null,
    "persistent_id": "",
    "id": 89289834,
    "location_subtype": "",
    "month": "2020-12"
  },
  {
    "category": "anti-social-behaviour",
    "location_type": "Force",
    "location": {
      "latitude": "51.899469",
      "street": {
        "id": 708123,
        "name": "On or near Kipling Road"
      },
      "longitude": "-2.112923"
    },
    "context": "",
    "outcome_status": null,
    "persistent_id": "",
    "id": 89289767,
    "location_subtype": "",
    "month": "2020-12"
  },
  {
    "category": "anti-social-behaviour",
    "location_type": "Force",
    "location": {
      "latitude": "51.902428",
      "street": {
        "id": 707912,
        "name": "On or near Ambrose Street"
      },
      "longitude": "-2.079544"
    },
    "context": "",
    "outcome_status": null,
    "persistent_id": "",
    "id": 89289728,
    "location_subtype": "",
    "month": "2020-12"
  },
  {
    "category": "anti-social-behaviour",
    "location_type": "Force",
    "location": {
      "latitude": "51.899469",
      "street": {
        "id": 708123,
        "name": "On or near Kipling Road"
      },
      "longitude": "-2.112923"
    },
    "context": "",
    "outcome_status": null,
    "persistent_id": "",
    "id": 89289724,
    "location_subtype": "",
    "month": "2020-12"
  },
  {
    "category": "anti-social-behaviour",
    "location_type": "Force",
    "location": {
      "latitude": "51.909533",
      "street": {
        "id": 708601,
        "name": "On or near Hope Street"
      },
      "longitude": "-2.089137"
    },
    "context": "",
    "outcome_status": null,
    "persistent_id": "",
    "id": 89289712,
    "location_subtype": "",
    "month": "2020-12"
  },
  {
    "category": "anti-social-behaviour",
    "location_type": "Force",
    "location": {
      "latitude": "51.904987",
      "street": {
        "id": 708386,
        "name": "On or near Aston Grove"
      },
      "longitude": "-2.124710"
    },
    "context": "",
    "outcome_status": null,
    "persistent_id": "",
    "id": 89289693,
    "location_subtype": "",
    "month": "2020-12"
  },
  {
    "category": "anti-social-behaviour",
    "location_type": "Force",
    "location": {
      "latitude": "51.918041",
      "street": {
        "id": 700925,
        "name": "On or near Supermarket"
      },
      "longitude": "-2.106761"
    },
    "context": "",
    "outcome_status": null,
    "persistent_id": "",
    "id": 89289683,
    "location_subtype": "",
    "month": "2020-12"
  },
  {
    "category": "anti-social-behaviour",
    "location_type": "Force",
    "location": {
      "latitude": "51.906761",
      "street": {
        "id": 708441,
        "name": "On or near Quebec Drive"
      },
      "longitude": "-2.112650"
    },
    "context": "",
    "outcome_status": null,
    "persistent_id": "",
    "id": 89289678,
    "location_subtype": "",
    "month": "2020-12"
  },
  {
    "category": "anti-social-behaviour",
    "location_type": "Force",
    "location": {
      "latitude": "51.902793",
      "street": {
        "id": 707907,
        "name": "On or near Great Western Road"
      },
      "longitude": "-2.084792"
    },
    "context": "",
    "outcome_status": null,
    "persistent_id": "",
    "id": 89289669,
    "location_subtype": "",
    "month": "2020-12"
  },
  {
    "category": "anti-social-behaviour",
    "location_type": "Force",
    "location": {
      "latitude": "51.912190",
      "street": {
        "id": 708638,
        "name": "On or near Shopping Area"
      },
      "longitude": "-2.094085"
    },
    "context": "",
    "outcome_status": null,
    "persistent_id": "",
    "id": 89289668,
    "location_subtype": "",
    "month": "2020-12"
  },
  {
    "category": "anti-social-behaviour",
    "location_type": "Force",
    "location": {
      "latitude": "51.914793",
      "street": {
        "id": 708419,
        "name": "On or near Shopping Area"
      },
      "longitude": "-2.099557"
    },
    "context": "",
    "outcome_status": null,
    "persistent_id": "",
    "id": 89289667,
    "location_subtype": "",
    "month": "2020-12"
  },
  {
    "category": "anti-social-behaviour",
    "location_type": "Force",
    "location": {
      "latitude": "51.915678",
      "street": {
        "id": 708392,
        "name": "On or near Village Road"
      },
      "longitude": "-2.105636"
    },
    "context": "",
    "outcome_status": null,
    "persistent_id": "",
    "id": 89289651,
    "location_subtype": "",
    "month": "2020-12"
  },
  {
    "category": "anti-social-behaviour",
    "location_type": "Force",
    "location": {
      "latitude": "51.899469",
      "street": {
        "id": 708123,
        "name": "On or near Kipling Road"
      },
      "longitude": "-2.112923"
    },
    "context": "",
    "outcome_status": null,
    "persistent_id": "",
    "id": 89290056,
    "location_subtype": "",
    "month": "2020-12"
  },
  {
    "category": "anti-social-behaviour",
    "location_type": "Force",
    "location": {
      "latitude": "51.914246",
      "street": {
        "id": 708418,
        "name": "On or near Shopping Area"
      },
      "longitude": "-2.117060"
    },
    "context": "",
    "outcome_status": null,
    "persistent_id": "",
    "id": 89289616,
    "location_subtype": "",
    "month": "2020-12"
  },
  {
    "category": "anti-social-behaviour",
    "location_type": "Force",
    "location": {
      "latitude": "51.902580",
      "street": {
        "id": 707910,
        "name": "On or near Chapel Street"
      },
      "longitude": "-2.080112"
    },
    "context": "",
    "outcome_status": null,
    "persistent_id": "",
    "id": 89289613,
    "location_subtype": "",
    "month": "2020-12"
  },
  {
    "category": "anti-social-behaviour",
    "location_type": "Force",
    "location": {
      "latitude": "51.900216",
      "street": {
        "id": 708017,
        "name": "On or near Conference/exhibition Centre"
      },
      "longitude": "-2.080282"
    },
    "context": "",
    "outcome_status": null,
    "persistent_id": "",
    "id": 89289572,
    "location_subtype": "",
    "month": "2020-12"
  },
  {
    "category": "anti-social-behaviour",
    "location_type": "Force",
    "location": {
      "latitude": "51.901634",
      "street": {
        "id": 708074,
        "name": "On or near Hamlet Close"
      },
      "longitude": "-2.115414"
    },
    "context": "",
    "outcome_status": null,
    "persistent_id": "",
    "id": 89289566,
    "location_subtype": "",
    "month": "2020-12"
  },
  {
    "category": "anti-social-behaviour",
    "location_type": "Force",
    "location": {
      "latitude": "51.895490",
      "street": {
        "id": 707982,
        "name": "On or near Lansdown Crescent"
      },
      "longitude": "-2.087307"
    },
    "context": "",
    "outcome_status": null,
    "persistent_id": "",
    "id": 89289502,
    "location_subtype": "",
    "month": "2020-12"
  },
  {
    "category": "anti-social-behaviour",
    "location_type": "Force",
    "location": {
      "latitude": "51.909738",
      "street": {
        "id": 708497,
        "name": "On or near Sports/recreation Area"
      },
      "longitude": "-2.111393"
    },
    "context": "",
    "outcome_status": null,
    "persistent_id": "",
    "id": 89289492,
    "location_subtype": "",
    "month": "2020-12"
  },
  {
    "category": "anti-social-behaviour",
    "location_type": "Force",
    "location": {
      "latitude": "51.914793",
      "street": {
        "id": 708419,
        "name": "On or near Shopping Area"
      },
      "longitude": "-2.099557"
    },
    "context": "",
    "outcome_status": null,
    "persistent_id": "",
    "id": 89289486,
    "location_subtype": "",
    "month": "2020-12"
  },
  {
    "category": "anti-social-behaviour",
    "location_type": "Force",
    "location": {
      "latitude": "51.917712",
      "street": {
        "id": 708941,
        "name": "On or near Parking Area"
      },
      "longitude": "-2.103256"
    },
    "context": "",
    "outcome_status": null,
    "persistent_id": "",
    "id": 89289480,
    "location_subtype": "",
    "month": "2020-12"
  },
  {
    "category": "anti-social-behaviour",
    "location_type": "Force",
    "location": {
      "latitude": "51.914793",
      "street": {
        "id": 708419,
        "name": "On or near Shopping Area"
      },
      "longitude": "-2.099557"
    },
    "context": "",
    "outcome_status": null,
    "persistent_id": "",
    "id": 89289460,
    "location_subtype": "",
    "month": "2020-12"
  },
  {
    "category": "anti-social-behaviour",
    "location_type": "Force",
    "location": {
      "latitude": "51.898042",
      "street": {
        "id": 708221,
        "name": "On or near Sotherby Drive"
      },
      "longitude": "-2.120055"
    },
    "context": "",
    "outcome_status": null,
    "persistent_id": "",
    "id": 89289445,
    "location_subtype": "",
    "month": "2020-12"
  },
  {
    "category": "anti-social-behaviour",
    "location_type": "Force",
    "location": {
      "latitude": "51.895934",
      "street": {
        "id": 707949,
        "name": "On or near Royal Parade Mews"
      },
      "longitude": "-2.082745"
    },
    "context": "",
    "outcome_status": null,
    "persistent_id": "",
    "id": 89289434,
    "location_subtype": "",
    "month": "2020-12"
  },
  {
    "category": "anti-social-behaviour",
    "location_type": "Force",
    "location": {
      "latitude": "51.896404",
      "street": {
        "id": 707997,
        "name": "On or near Christ Church Road"
      },
      "longitude": "-2.092381"
    },
    "context": "",
    "outcome_status": null,
    "persistent_id": "",
    "id": 89289430,
    "location_subtype": "",
    "month": "2020-12"
  },
  {
    "category": "anti-social-behaviour",
    "location_type": "Force",
    "location": {
      "latitude": "51.906587",
      "street": {
        "id": 708620,
        "name": "On or near Charles Street"
      },
      "longitude": "-2.085293"
    },
    "context": "",
    "outcome_status": null,
    "persistent_id": "",
    "id": 89289424,
    "location_subtype": "",
    "month": "2020-12"
  },
  {
    "category": "anti-social-behaviour",
    "location_type": "Force",
    "location": {
      "latitude": "51.914793",
      "street": {
        "id": 708419,
        "name": "On or near Shopping Area"
      },
      "longitude": "-2.099557"
    },
    "context": "",
    "outcome_status": null,
    "persistent_id": "",
    "id": 89289398,
    "location_subtype": "",
    "month": "2020-12"
  },
  {
    "category": "anti-social-behaviour",
    "location_type": "Force",
    "location": {
      "latitude": "51.901457",
      "street": {
        "id": 708076,
        "name": "On or near Goldsmith Close"
      },
      "longitude": "-2.112797"
    },
    "context": "",
    "outcome_status": null,
    "persistent_id": "",
    "id": 89289390,
    "location_subtype": "",
    "month": "2020-12"
  },
  {
    "category": "anti-social-behaviour",
    "location_type": "Force",
    "location": {
      "latitude": "51.901599",
      "street": {
        "id": 707897,
        "name": "On or near Pates Avenue"
      },
      "longitude": "-2.094223"
    },
    "context": "",
    "outcome_status": null,
    "persistent_id": "",
    "id": 89289389,
    "location_subtype": "",
    "month": "2020-12"
  },
  {
    "category": "anti-social-behaviour",
    "location_type": "Force",
    "location": {
      "latitude": "51.898863",
      "street": {
        "id": 708146,
        "name": "On or near Cowper Road"
      },
      "longitude": "-2.117412"
    },
    "context": "",
    "outcome_status": null,
    "persistent_id": "",
    "id": 89289387,
    "location_subtype": "",
    "month": "2020-12"
  },
  {
    "category": "anti-social-behaviour",
    "location_type": "Force",
    "location": {
      "latitude": "51.900216",
      "street": {
        "id": 708106,
        "name": "On or near Shakespeare Road"
      },
      "longitude": "-2.112154"
    },
    "context": "",
    "outcome_status": null,
    "persistent_id": "",
    "id": 89289379,
    "location_subtype": "",
    "month": "2020-12"
  },
  {
    "category": "anti-social-behaviour",
    "location_type": "Force",
    "location": {
      "latitude": "51.916996",
      "street": {
        "id": 708946,
        "name": "On or near Coppice Gate"
      },
      "longitude": "-2.109245"
    },
    "context": "",
    "outcome_status": null,
    "persistent_id": "",
    "id": 89289373,
    "location_subtype": "",
    "month": "2020-12"
  },
  {
    "category": "anti-social-behaviour",
    "location_type": "Force",
    "location": {
      "latitude": "51.910716",
      "street": {
        "id": 708443,
        "name": "On or near Princess Elizabeth Way"
      },
      "longitude": "-2.104054"
    },
    "context": "",
    "outcome_status": null,
    "persistent_id": "",
    "id": 89289812,
    "location_subtype": "",
    "month": "2020-12"
  },
  {
    "category": "anti-social-behaviour",
    "location_type": "Force",
    "location": {
      "latitude": "51.909533",
      "street": {
        "id": 708601,
        "name": "On or near Hope Street"
      },
      "longitude": "-2.089137"
    },
    "context": "",
    "outcome_status": null,
    "persistent_id": "",
    "id": 89289793,
    "location_subtype": "",
    "month": "2020-12"
  },
  {
    "category": "anti-social-behaviour",
    "location_type": "Force",
    "location": {
      "latitude": "51.902305",
      "street": {
        "id": 708058,
        "name": "On or near Parkbury Close"
      },
      "longitude": "-2.099471"
    },
    "context": "",
    "outcome_status": null,
    "persistent_id": "",
    "id": 89289356,
    "location_subtype": "",
    "month": "2020-12"
  },
  {
    "category": "anti-social-behaviour",
    "location_type": "Force",
    "location": {
      "latitude": "51.903968",
      "street": {
        "id": 708348,
        "name": "On or near Marsland Road"
      },
      "longitude": "-2.119068"
    },
    "context": "",
    "outcome_status": null,
    "persistent_id": "",
    "id": 89289349,
    "location_subtype": "",
    "month": "2020-12"
  },
  {
    "category": "anti-social-behaviour",
    "location_type": "Force",
    "location": {
      "latitude": "51.893393",
      "street": {
        "id": 708011,
        "name": "On or near Petrol Station"
      },
      "longitude": "-2.090267"
    },
    "context": "",
    "outcome_status": null,
    "persistent_id": "",
    "id": 89289346,
    "location_subtype": "",
    "month": "2020-12"
  },
  {
    "category": "anti-social-behaviour",
    "location_type": "Force",
    "location": {
      "latitude": "51.903067",
      "street": {
        "id": 707905,
        "name": "On or near High Street"
      },
      "longitude": "-2.079022"
    },
    "context": "",
    "outcome_status": null,
    "persistent_id": "",
    "id": 89289296,
    "location_subtype": "",
    "month": "2020-12"
  },
  {
    "category": "anti-social-behaviour",
    "location_type": "Force",
    "location": {
      "latitude": "51.908600",
      "street": {
        "id": 708570,
        "name": "On or near Swindon Close"
      },
      "longitude": "-2.086140"
    },
    "context": "",
    "outcome_status": null,
    "persistent_id": "",
    "id": 89288880,
    "location_subtype": "",
    "month": "2020-12"
  },
  {
    "category": "anti-social-behaviour",
    "location_type": "Force",
    "location": {
      "latitude": "51.895044",
      "street": {
        "id": 707951,
        "name": "On or near Queen's Road"
      },
      "longitude": "-2.095052"
    },
    "context": "",
    "outcome_status": null,
    "persistent_id": "",
    "id": 89288864,
    "location_subtype": "",
    "month": "2020-12"
  },
  {
    "category": "anti-social-behaviour",
    "location_type": "Force",
    "location": {
      "latitude": "51.894878",
      "street": {
        "id": 708055,
        "name": "On or near Lansdown Crescent Lane"
      },
      "longitude": "-2.088236"
    },
    "context": "",
    "outcome_status": null,
    "persistent_id": "",
    "id": 89288859,
    "location_subtype": "",
    "month": "2020-12"
  },
  {
    "category": "anti-social-behaviour",
    "location_type": "Force",
    "location": {
      "latitude": "51.903723",
      "street": {
        "id": 708527,
        "name": "On or near St George's Street"
      },
      "longitude": "-2.078137"
    },
    "context": "",
    "outcome_status": null,
    "persistent_id": "",
    "id": 89288841,
    "location_subtype": "",
    "month": "2020-12"
  },
  {
    "category": "anti-social-behaviour",
    "location_type": "Force",
    "location": {
      "latitude": "51.895133",
      "street": {
        "id": 707919,
        "name": "On or near Queens Lane"
      },
      "longitude": "-2.084371"
    },
    "context": "",
    "outcome_status": null,
    "persistent_id": "",
    "id": 89288837,
    "location_subtype": "",
    "month": "2020-12"
  },
  {
    "category": "anti-social-behaviour",
    "location_type": "Force",
    "location": {
      "latitude": "51.905711",
      "street": {
        "id": 708489,
        "name": "On or near Blenheim Square"
      },
      "longitude": "-2.110642"
    },
    "context": "",
    "outcome_status": null,
    "persistent_id": "",
    "id": 89288818,
    "location_subtype": "",
    "month": "2020-12"
  },
  {
    "category": "anti-social-behaviour",
    "location_type": "Force",
    "location": {
      "latitude": "51.897507",
      "street": {
        "id": 708095,
        "name": "On or near Wasley Road"
      },
      "longitude": "-2.115287"
    },
    "context": "",
    "outcome_status": null,
    "persistent_id": "",
    "id": 89289063,
    "location_subtype": "",
    "month": "2020-12"
  },
  {
    "category": "anti-social-behaviour",
    "location_type": "Force",
    "location": {
      "latitude": "51.894985",
      "street": {
        "id": 707981,
        "name": "On or near Lansdown Parade"
      },
      "longitude": "-2.090212"
    },
    "context": "",
    "outcome_status": null,
    "persistent_id": "",
    "id": 89289065,
    "location_subtype": "",
    "month": "2020-12"
  },
  {
    "category": "anti-social-behaviour",
    "location_type": "Force",
    "location": {
      "latitude": "51.897378",
      "street": {
        "id": 708167,
        "name": "On or near Queen's Road"
      },
      "longitude": "-2.098850"
    },
    "context": "",
    "outcome_status": null,
    "persistent_id": "",
    "id": 89289086,
    "location_subtype": "",
    "month": "2020-12"
  },
  {
    "category": "anti-social-behaviour",
    "location_type": "Force",
    "location": {
      "latitude": "51.914246",
      "street": {
        "id": 708418,
        "name": "On or near Shopping Area"
      },
      "longitude": "-2.117060"
    },
    "context": "",
    "outcome_status": null,
    "persistent_id": "",
    "id": 89289134,
    "location_subtype": "",
    "month": "2020-12"
  },
  {
    "category": "anti-social-behaviour",
    "location_type": "Force",
    "location": {
      "latitude": "51.911697",
      "street": {
        "id": 708582,
        "name": "On or near Richards Road"
      },
      "longitude": "-2.092136"
    },
    "context": "",
    "outcome_status": null,
    "persistent_id": "",
    "id": 89289152,
    "location_subtype": "",
    "month": "2020-12"
  },
  {
    "category": "anti-social-behaviour",
    "location_type": "Force",
    "location": {
      "latitude": "51.898274",
      "street": {
        "id": 708116,
        "name": "On or near Libertus Road"
      },
      "longitude": "-2.103066"
    },
    "context": "",
    "outcome_status": null,
    "persistent_id": "",
    "id": 89288790,
    "location_subtype": "",
    "month": "2020-12"
  },
  {
    "category": "anti-social-behaviour",
    "location_type": "Force",
    "location": {
      "latitude": "51.905751",
      "street": {
        "id": 708607,
        "name": "On or near Gloucester Road"
      },
      "longitude": "-2.085117"
    },
    "context": "",
    "outcome_status": null,
    "persistent_id": "",
    "id": 89288785,
    "location_subtype": "",
    "month": "2020-12"
  },
  {
    "category": "anti-social-behaviour",
    "location_type": "Force",
    "location": {
      "latitude": "51.900098",
      "street": {
        "id": 707921,
        "name": "On or near Parking Area"
      },
      "longitude": "-2.081575"
    },
    "context": "",
    "outcome_status": null,
    "persistent_id": "",
    "id": 89288773,
    "location_subtype": "",
    "month": "2020-12"
  },
  {
    "category": "anti-social-behaviour",
    "location_type": "Force",
    "location": {
      "latitude": "51.900098",
      "street": {
        "id": 707921,
        "name": "On or near Parking Area"
      },
      "longitude": "-2.081575"
    },
    "context": "",
    "outcome_status": null,
    "persistent_id": "",
    "id": 89288752,
    "location_subtype": "",
    "month": "2020-12"
  },
  {
    "category": "anti-social-behaviour",
    "location_type": "Force",
    "location": {
      "latitude": "51.902959",
      "street": {
        "id": 707913,
        "name": "On or near Ambrose Street"
      },
      "longitude": "-2.079124"
    },
    "context": "",
    "outcome_status": null,
    "persistent_id": "",
    "id": 89288750,
    "location_subtype": "",
    "month": "2020-12"
  },
  {
    "category": "anti-social-behaviour",
    "location_type": "Force",
    "location": {
      "latitude": "51.905987",
      "street": {
        "id": 708383,
        "name": "On or near Dunster Close"
      },
      "longitude": "-2.122736"
    },
    "context": "",
    "outcome_status": null,
    "persistent_id": "",
    "id": 89288685,
    "location_subtype": "",
    "month": "2020-12"
  },
  {
    "category": "anti-social-behaviour",
    "location_type": "Force",
    "location": {
      "latitude": "51.904081",
      "street": {
        "id": 708604,
        "name": "On or near High Street"
      },
      "longitude": "-2.081553"
    },
    "context": "",
    "outcome_status": null,
    "persistent_id": "",
    "id": 89288673,
    "location_subtype": "",
    "month": "2020-12"
  },
  {
    "category": "anti-social-behaviour",
    "location_type": "Force",
    "location": {
      "latitude": "51.904414",
      "street": {
        "id": 708600,
        "name": "On or near King Street"
      },
      "longitude": "-2.080289"
    },
    "context": "",
    "outcome_status": null,
    "persistent_id": "",
    "id": 89288671,
    "location_subtype": "",
    "month": "2020-12"
  },
  {
    "category": "anti-social-behaviour",
    "location_type": "Force",
    "location": {
      "latitude": "51.897667",
      "street": {
        "id": 708113,
        "name": "On or near Monks Croft"
      },
      "longitude": "-2.117162"
    },
    "context": "",
    "outcome_status": null,
    "persistent_id": "",
    "id": 89288637,
    "location_subtype": "",
    "month": "2020-12"
  },
  {
    "category": "anti-social-behaviour",
    "location_type": "Force",
    "location": {
      "latitude": "51.909768",
      "street": {
        "id": 708623,
        "name": "On or near Bullingham Court"
      },
      "longitude": "-2.086695"
    },
    "context": "",
    "outcome_status": null,
    "persistent_id": "",
    "id": 89288635,
    "location_subtype": "",
    "month": "2020-12"
  },
  {
    "category": "anti-social-behaviour",
    "location_type": "Force",
    "location": {
      "latitude": "51.902850",
      "street": {
        "id": 707917,
        "name": "On or near Alstone Avenue"
      },
      "longitude": "-2.092365"
    },
    "context": "",
    "outcome_status": null,
    "persistent_id": "",
    "id": 89288632,
    "location_subtype": "",
    "month": "2020-12"
  },
  {
    "category": "anti-social-behaviour",
    "location_type": "Force",
    "location": {
      "latitude": "51.899151",
      "street": {
        "id": 708162,
        "name": "On or near Stow Court"
      },
      "longitude": "-2.097473"
    },
    "context": "",
    "outcome_status": null,
    "persistent_id": "",
    "id": 89288627,
    "location_subtype": "",
    "month": "2020-12"
  },
  {
    "category": "anti-social-behaviour",
    "location_type": "Force",
    "location": {
      "latitude": "51.898325",
      "street": {
        "id": 708125,
        "name": "On or near Hillfield"
      },
      "longitude": "-2.106264"
    },
    "context": "",
    "outcome_status": null,
    "persistent_id": "",
    "id": 89288618,
    "location_subtype": "",
    "month": "2020-12"
  },
  {
    "category": "anti-social-behaviour",
    "location_type": "Force",
    "location": {
      "latitude": "51.896913",
      "street": {
        "id": 700956,
        "name": "On or near Griffiths Avenue"
      },
      "longitude": "-2.106173"
    },
    "context": "",
    "outcome_status": null,
    "persistent_id": "",
    "id": 89288612,
    "location_subtype": "",
    "month": "2020-12"
  },
  {
    "category": "anti-social-behaviour",
    "location_type": "Force",
    "location": {
      "latitude": "51.907909",
      "street": {
        "id": 708449,
        "name": "On or near Orchard Way"
      },
      "longitude": "-2.106315"
    },
    "context": "",
    "outcome_status": null,
    "persistent_id": "",
    "id": 89288609,
    "location_subtype": "",
    "month": "2020-12"
  },
  {
    "category": "anti-social-behaviour",
    "location_type": "Force",
    "location": {
      "latitude": "51.897378",
      "street": {
        "id": 708167,
        "name": "On or near Queen's Road"
      },
      "longitude": "-2.098850"
    },
    "context": "",
    "outcome_status": null,
    "persistent_id": "",
    "id": 89288589,
    "location_subtype": "",
    "month": "2020-12"
  },
  {
    "category": "anti-social-behaviour",
    "location_type": "Force",
    "location": {
      "latitude": "51.903666",
      "street": {
        "id": 708551,
        "name": "On or near Burton Street"
      },
      "longitude": "-2.083195"
    },
    "context": "",
    "outcome_status": null,
    "persistent_id": "",
    "id": 89290140,
    "location_subtype": "",
    "month": "2020-12"
  },
  {
    "category": "anti-social-behaviour",
    "location_type": "Force",
    "location": {
      "latitude": "51.894878",
      "street": {
        "id": 708055,
        "name": "On or near Lansdown Crescent Lane"
      },
      "longitude": "-2.088236"
    },
    "context": "",
    "outcome_status": null,
    "persistent_id": "",
    "id": 89290420,
    "location_subtype": "",
    "month": "2020-12"
  },
  {
    "category": "anti-social-behaviour",
    "location_type": "Force",
    "location": {
      "latitude": "51.898934",
      "street": {
        "id": 707960,
        "name": "On or near Overton Road"
      },
      "longitude": "-2.086660"
    },
    "context": "",
    "outcome_status": null,
    "persistent_id": "",
    "id": 89290384,
    "location_subtype": "",
    "month": "2020-12"
  },
  {
    "category": "anti-social-behaviour",
    "location_type": "Force",
    "location": {
      "latitude": "51.905647",
      "street": {
        "id": 708530,
        "name": "On or near St Paul's Street North"
      },
      "longitude": "-2.078227"
    },
    "context": "",
    "outcome_status": null,
    "persistent_id": "",
    "id": 89290373,
    "location_subtype": "",
    "month": "2020-12"
  },
  {
    "category": "anti-social-behaviour",
    "location_type": "Force",
    "location": {
      "latitude": "51.910301",
      "street": {
        "id": 708575,
        "name": "On or near St Peters Close"
      },
      "longitude": "-2.095607"
    },
    "context": "",
    "outcome_status": null,
    "persistent_id": "",
    "id": 89290343,
    "location_subtype": "",
    "month": "2020-12"
  },
  {
    "category": "anti-social-behaviour",
    "location_type": "Force",
    "location": {
      "latitude": "51.912473",
      "street": {
        "id": 708354,
        "name": "On or near Hazlitt Croft"
      },
      "longitude": "-2.119454"
    },
    "context": "",
    "outcome_status": null,
    "persistent_id": "",
    "id": 89290341,
    "location_subtype": "",
    "month": "2020-12"
  },
  {
    "category": "anti-social-behaviour",
    "location_type": "Force",
    "location": {
      "latitude": "51.903260",
      "street": {
        "id": 708087,
        "name": "On or near Sports/recreation Area"
      },
      "longitude": "-2.106784"
    },
    "context": "",
    "outcome_status": null,
    "persistent_id": "",
    "id": 89290331,
    "location_subtype": "",
    "month": "2020-12"
  },
  {
    "category": "anti-social-behaviour",
    "location_type": "Force",
    "location": {
      "latitude": "51.890630",
      "street": {
        "id": 707987,
        "name": "On or near Hatherley Court Road"
      },
      "longitude": "-2.093647"
    },
    "context": "",
    "outcome_status": null,
    "persistent_id": "",
    "id": 89290329,
    "location_subtype": "",
    "month": "2020-12"
  },
  {
    "category": "anti-social-behaviour",
    "location_type": "Force",
    "location": {
      "latitude": "51.907796",
      "street": {
        "id": 708460,
        "name": "On or near Montreal Drive"
      },
      "longitude": "-2.111330"
    },
    "context": "",
    "outcome_status": null,
    "persistent_id": "",
    "id": 89290317,
    "location_subtype": "",
    "month": "2020-12"
  },
  {
    "category": "anti-social-behaviour",
    "location_type": "Force",
    "location": {
      "latitude": "51.907849",
      "street": {
        "id": 708467,
        "name": "On or near Lechmere Road"
      },
      "longitude": "-2.113118"
    },
    "context": "",
    "outcome_status": null,
    "persistent_id": "",
    "id": 89290314,
    "location_subtype": "",
    "month": "2020-12"
  },
  {
    "category": "anti-social-behaviour",
    "location_type": "Force",
    "location": {
      "latitude": "51.903968",
      "street": {
        "id": 708348,
        "name": "On or near Marsland Road"
      },
      "longitude": "-2.119068"
    },
    "context": "",
    "outcome_status": null,
    "persistent_id": "",
    "id": 89290280,
    "location_subtype": "",
    "month": "2020-12"
  },
  {
    "category": "anti-social-behaviour",
    "location_type": "Force",
    "location": {
      "latitude": "51.909356",
      "street": {
        "id": 708482,
        "name": "On or near Brown Close"
      },
      "longitude": "-2.116277"
    },
    "context": "",
    "outcome_status": null,
    "persistent_id": "",
    "id": 89290269,
    "location_subtype": "",
    "month": "2020-12"
  },
  {
    "category": "anti-social-behaviour",
    "location_type": "Force",
    "location": {
      "latitude": "51.903666",
      "street": {
        "id": 708551,
        "name": "On or near Burton Street"
      },
      "longitude": "-2.083195"
    },
    "context": "",
    "outcome_status": null,
    "persistent_id": "",
    "id": 89290267,
    "location_subtype": "",
    "month": "2020-12"
  },
  {
    "category": "anti-social-behaviour",
    "location_type": "Force",
    "location": {
      "latitude": "51.901613",
      "street": {
        "id": 707903,
        "name": "On or near Honeybourne Way"
      },
      "longitude": "-2.086999"
    },
    "context": "",
    "outcome_status": null,
    "persistent_id": "",
    "id": 89290258,
    "location_subtype": "",
    "month": "2020-12"
  },
  {
    "category": "anti-social-behaviour",
    "location_type": "Force",
    "location": {
      "latitude": "51.917712",
      "street": {
        "id": 708941,
        "name": "On or near Parking Area"
      },
      "longitude": "-2.103256"
    },
    "context": "",
    "outcome_status": null,
    "persistent_id": "",
    "id": 89290219,
    "location_subtype": "",
    "month": "2020-12"
  },
  {
    "category": "anti-social-behaviour",
    "location_type": "Force",
    "location": {
      "latitude": "51.894985",
      "street": {
        "id": 707981,
        "name": "On or near Lansdown Parade"
      },
      "longitude": "-2.090212"
    },
    "context": "",
    "outcome_status": null,
    "persistent_id": "",
    "id": 89290210,
    "location_subtype": "",
    "month": "2020-12"
  },
  {
    "category": "anti-social-behaviour",
    "location_type": "Force",
    "location": {
      "latitude": "51.901599",
      "street": {
        "id": 707897,
        "name": "On or near Pates Avenue"
      },
      "longitude": "-2.094223"
    },
    "context": "",
    "outcome_status": null,
    "persistent_id": "",
    "id": 89290190,
    "location_subtype": "",
    "month": "2020-12"
  },
  {
    "category": "anti-social-behaviour",
    "location_type": "Force",
    "location": {
      "latitude": "51.898934",
      "street": {
        "id": 707960,
        "name": "On or near Overton Road"
      },
      "longitude": "-2.086660"
    },
    "context": "",
    "outcome_status": null,
    "persistent_id": "",
    "id": 89290184,
    "location_subtype": "",
    "month": "2020-12"
  },
  {
    "category": "anti-social-behaviour",
    "location_type": "Force",
    "location": {
      "latitude": "51.915127",
      "street": {
        "id": 708506,
        "name": "On or near Windyridge Gardens"
      },
      "longitude": "-2.086400"
    },
    "context": "",
    "outcome_status": null,
    "persistent_id": "",
    "id": 89290161,
    "location_subtype": "",
    "month": "2020-12"
  },
  {
    "category": "anti-social-behaviour",
    "location_type": "Force",
    "location": {
      "latitude": "51.905050",
      "street": {
        "id": 708602,
        "name": "On or near High Street"
      },
      "longitude": "-2.083837"
    },
    "context": "",
    "outcome_status": null,
    "persistent_id": "",
    "id": 89290133,
    "location_subtype": "",
    "month": "2020-12"
  },
  {
    "category": "anti-social-behaviour",
    "location_type": "Force",
    "location": {
      "latitude": "51.905796",
      "street": {
        "id": 708557,
        "name": "On or near White Hart Street"
      },
      "longitude": "-2.084304"
    },
    "context": "",
    "outcome_status": null,
    "persistent_id": "",
    "id": 89289944,
    "location_subtype": "",
    "month": "2020-12"
  },
  {
    "category": "anti-social-behaviour",
    "location_type": "Force",
    "location": {
      "latitude": "51.901599",
      "street": {
        "id": 707897,
        "name": "On or near Pates Avenue"
      },
      "longitude": "-2.094223"
    },
    "context": "",
    "outcome_status": null,
    "persistent_id": "",
    "id": 89289272,
    "location_subtype": "",
    "month": "2020-12"
  },
  {
    "category": "anti-social-behaviour",
    "location_type": "Force",
    "location": {
      "latitude": "51.897522",
      "street": {
        "id": 707993,
        "name": "On or near Drakes Place"
      },
      "longitude": "-2.088139"
    },
    "context": "",
    "outcome_status": null,
    "persistent_id": "",
    "id": 89288459,
    "location_subtype": "",
    "month": "2020-12"
  },
  {
    "category": "anti-social-behaviour",
    "location_type": "Force",
    "location": {
      "latitude": "51.903581",
      "street": {
        "id": 708342,
        "name": "On or near Lewis Road"
      },
      "longitude": "-2.119445"
    },
    "context": "",
    "outcome_status": null,
    "persistent_id": "",
    "id": 89288469,
    "location_subtype": "",
    "month": "2020-12"
  },
  {
    "category": "anti-social-behaviour",
    "location_type": "Force",
    "location": {
      "latitude": "51.903968",
      "street": {
        "id": 708348,
        "name": "On or near Marsland Road"
      },
      "longitude": "-2.119068"
    },
    "context": "",
    "outcome_status": null,
    "persistent_id": "",
    "id": 89288324,
    "location_subtype": "",
    "month": "2020-12"
  },
  {
    "category": "anti-social-behaviour",
    "location_type": "Force",
    "location": {
      "latitude": "51.902949",
      "street": {
        "id": 707895,
        "name": "On or near Royal Oak Mews"
      },
      "longitude": "-2.080577"
    },
    "context": "",
    "outcome_status": null,
    "persistent_id": "",
    "id": 89288329,
    "location_subtype": "",
    "month": "2020-12"
  },
  {
    "category": "anti-social-behaviour",
    "location_type": "Force",
    "location": {
      "latitude": "51.896913",
      "street": {
        "id": 700956,
        "name": "On or near Griffiths Avenue"
      },
      "longitude": "-2.106173"
    },
    "context": "",
    "outcome_status": null,
    "persistent_id": "",
    "id": 89288337,
    "location_subtype": "",
    "month": "2020-12"
  },
  {
    "category": "anti-social-behaviour",
    "location_type": "Force",
    "location": {
      "latitude": "51.906710",
      "street": {
        "id": 708355,
        "name": "On or near Graham Place"
      },
      "longitude": "-2.119482"
    },
    "context": "",
    "outcome_status": null,
    "persistent_id": "",
    "id": 89288369,
    "location_subtype": "",
    "month": "2020-12"
  },
  {
    "category": "anti-social-behaviour",
    "location_type": "Force",
    "location": {
      "latitude": "51.899530",
      "street": {
        "id": 708102,
        "name": "On or near Shelley Road"
      },
      "longitude": "-2.115001"
    },
    "context": "",
    "outcome_status": null,
    "persistent_id": "",
    "id": 89288372,
    "location_subtype": "",
    "month": "2020-12"
  },
  {
    "category": "anti-social-behaviour",
    "location_type": "Force",
    "location": {
      "latitude": "51.902428",
      "street": {
        "id": 707912,
        "name": "On or near Ambrose Street"
      },
      "longitude": "-2.079544"
    },
    "context": "",
    "outcome_status": null,
    "persistent_id": "",
    "id": 89288382,
    "location_subtype": "",
    "month": "2020-12"
  },
  {
    "category": "anti-social-behaviour",
    "location_type": "Force",
    "location": {
      "latitude": "51.908983",
      "street": {
        "id": 708559,
        "name": "On or near Waterloo Street"
      },
      "longitude": "-2.090633"
    },
    "context": "",
    "outcome_status": null,
    "persistent_id": "",
    "id": 89288384,
    "location_subtype": "",
    "month": "2020-12"
  },
  {
    "category": "anti-social-behaviour",
    "location_type": "Force",
    "location": {
      "latitude": "51.898934",
      "street": {
        "id": 707960,
        "name": "On or near Overton Road"
      },
      "longitude": "-2.086660"
    },
    "context": "",
    "outcome_status": null,
    "persistent_id": "",
    "id": 89288393,
    "location_subtype": "",
    "month": "2020-12"
  },
  {
    "category": "anti-social-behaviour",
    "location_type": "Force",
    "location": {
      "latitude": "51.909738",
      "street": {
        "id": 708497,
        "name": "On or near Sports/recreation Area"
      },
      "longitude": "-2.111393"
    },
    "context": "",
    "outcome_status": null,
    "persistent_id": "",
    "id": 89288409,
    "location_subtype": "",
    "month": "2020-12"
  },
  {
    "category": "anti-social-behaviour",
    "location_type": "Force",
    "location": {
      "latitude": "51.910069",
      "street": {
        "id": 708552,
        "name": "On or near Pedestrian Subway"
      },
      "longitude": "-2.092859"
    },
    "context": "",
    "outcome_status": null,
    "persistent_id": "",
    "id": 89288422,
    "location_subtype": "",
    "month": "2020-12"
  },
  {
    "category": "anti-social-behaviour",
    "location_type": "Force",
    "location": {
      "latitude": "51.904497",
      "street": {
        "id": 708456,
        "name": "On or near Newton Road"
      },
      "longitude": "-2.111700"
    },
    "context": "",
    "outcome_status": null,
    "persistent_id": "",
    "id": 89288426,
    "location_subtype": "",
    "month": "2020-12"
  },
  {
    "category": "anti-social-behaviour",
    "location_type": "Force",
    "location": {
      "latitude": "51.905987",
      "street": {
        "id": 708383,
        "name": "On or near Dunster Close"
      },
      "longitude": "-2.122736"
    },
    "context": "",
    "outcome_status": null,
    "persistent_id": "",
    "id": 89288429,
    "location_subtype": "",
    "month": "2020-12"
  },
  {
    "category": "anti-social-behaviour",
    "location_type": "Force",
    "location": {
      "latitude": "51.905987",
      "street": {
        "id": 708383,
        "name": "On or near Dunster Close"
      },
      "longitude": "-2.122736"
    },
    "context": "",
    "outcome_status": null,
    "persistent_id": "",
    "id": 89288431,
    "location_subtype": "",
    "month": "2020-12"
  },
  {
    "category": "anti-social-behaviour",
    "location_type": "Force",
    "location": {
      "latitude": "51.903666",
      "street": {
        "id": 708551,
        "name": "On or near Burton Street"
      },
      "longitude": "-2.083195"
    },
    "context": "",
    "outcome_status": null,
    "persistent_id": "",
    "id": 89288433,
    "location_subtype": "",
    "month": "2020-12"
  },
  {
    "category": "anti-social-behaviour",
    "location_type": "Force",
    "location": {
      "latitude": "51.903666",
      "street": {
        "id": 708551,
        "name": "On or near Burton Street"
      },
      "longitude": "-2.083195"
    },
    "context": "",
    "outcome_status": null,
    "persistent_id": "",
    "id": 89288439,
    "location_subtype": "",
    "month": "2020-12"
  },
  {
    "category": "anti-social-behaviour",
    "location_type": "Force",
    "location": {
      "latitude": "51.903281",
      "street": {
        "id": 707909,
        "name": "On or near Devonshire Street"
      },
      "longitude": "-2.081508"
    },
    "context": "",
    "outcome_status": null,
    "persistent_id": "",
    "id": 89288441,
    "location_subtype": "",
    "month": "2020-12"
  },
  {
    "category": "anti-social-behaviour",
    "location_type": "Force",
    "location": {
      "latitude": "51.894878",
      "street": {
        "id": 708055,
        "name": "On or near Lansdown Crescent Lane"
      },
      "longitude": "-2.088236"
    },
    "context": "",
    "outcome_status": null,
    "persistent_id": "",
    "id": 89290124,
    "location_subtype": "",
    "month": "2020-12"
  },
  {
    "category": "anti-social-behaviour",
    "location_type": "Force",
    "location": {
      "latitude": "51.898042",
      "street": {
        "id": 708221,
        "name": "On or near Sotherby Drive"
      },
      "longitude": "-2.120055"
    },
    "context": "",
    "outcome_status": null,
    "persistent_id": "",
    "id": 89288690,
    "location_subtype": "",
    "month": "2020-12"
  },
  {
    "category": "anti-social-behaviour",
    "location_type": "Force",
    "location": {
      "latitude": "51.905987",
      "street": {
        "id": 708383,
        "name": "On or near Dunster Close"
      },
      "longitude": "-2.122736"
    },
    "context": "",
    "outcome_status": null,
    "persistent_id": "",
    "id": 89288692,
    "location_subtype": "",
    "month": "2020-12"
  },
  {
    "category": "anti-social-behaviour",
    "location_type": "Force",
    "location": {
      "latitude": "51.905987",
      "street": {
        "id": 708383,
        "name": "On or near Dunster Close"
      },
      "longitude": "-2.122736"
    },
    "context": "",
    "outcome_status": null,
    "persistent_id": "",
    "id": 89288694,
    "location_subtype": "",
    "month": "2020-12"
  },
  {
    "category": "anti-social-behaviour",
    "location_type": "Force",
    "location": {
      "latitude": "51.905987",
      "street": {
        "id": 708383,
        "name": "On or near Dunster Close"
      },
      "longitude": "-2.122736"
    },
    "context": "",
    "outcome_status": null,
    "persistent_id": "",
    "id": 89288695,
    "location_subtype": "",
    "month": "2020-12"
  },
  {
    "category": "anti-social-behaviour",
    "location_type": "Force",
    "location": {
      "latitude": "51.903067",
      "street": {
        "id": 707905,
        "name": "On or near High Street"
      },
      "longitude": "-2.079022"
    },
    "context": "",
    "outcome_status": null,
    "persistent_id": "",
    "id": 89288696,
    "location_subtype": "",
    "month": "2020-12"
  },
  {
    "category": "anti-social-behaviour",
    "location_type": "Force",
    "location": {
      "latitude": "51.900840",
      "street": {
        "id": 708088,
        "name": "On or near Sports/recreation Area"
      },
      "longitude": "-2.109118"
    },
    "context": "",
    "outcome_status": null,
    "persistent_id": "",
    "id": 89288700,
    "location_subtype": "",
    "month": "2020-12"
  },
  {
    "category": "anti-social-behaviour",
    "location_type": "Force",
    "location": {
      "latitude": "51.902428",
      "street": {
        "id": 707912,
        "name": "On or near Ambrose Street"
      },
      "longitude": "-2.079544"
    },
    "context": "",
    "outcome_status": null,
    "persistent_id": "",
    "id": 89288738,
    "location_subtype": "",
    "month": "2020-12"
  },
  {
    "category": "anti-social-behaviour",
    "location_type": "Force",
    "location": {
      "latitude": "51.908868",
      "street": {
        "id": 708616,
        "name": "On or near Cobham Road"
      },
      "longitude": "-2.088801"
    },
    "context": "",
    "outcome_status": null,
    "persistent_id": "",
    "id": 89289157,
    "location_subtype": "",
    "month": "2020-12"
  },
  {
    "category": "anti-social-behaviour",
    "location_type": "Force",
    "location": {
      "latitude": "51.894908",
      "street": {
        "id": 707945,
        "name": "On or near Skillicorne Mews"
      },
      "longitude": "-2.095851"
    },
    "context": "",
    "outcome_status": null,
    "persistent_id": "",
    "id": 89289167,
    "location_subtype": "",
    "month": "2020-12"
  },
  {
    "category": "anti-social-behaviour",
    "location_type": "Force",
    "location": {
      "latitude": "51.911490",
      "street": {
        "id": 708433,
        "name": "On or near Welch Road"
      },
      "longitude": "-2.113142"
    },
    "context": "",
    "outcome_status": null,
    "persistent_id": "",
    "id": 89289171,
    "location_subtype": "",
    "month": "2020-12"
  },
  {
    "category": "anti-social-behaviour",
    "location_type": "Force",
    "location": {
      "latitude": "51.894985",
      "street": {
        "id": 707981,
        "name": "On or near Lansdown Parade"
      },
      "longitude": "-2.090212"
    },
    "context": "",
    "outcome_status": null,
    "persistent_id": "",
    "id": 89289183,
    "location_subtype": "",
    "month": "2020-12"
  },
  {
    "category": "anti-social-behaviour",
    "location_type": "Force",
    "location": {
      "latitude": "51.906587",
      "street": {
        "id": 708620,
        "name": "On or near Charles Street"
      },
      "longitude": "-2.085293"
    },
    "context": "",
    "outcome_status": null,
    "persistent_id": "",
    "id": 89289204,
    "location_subtype": "",
    "month": "2020-12"
  },
  {
    "category": "anti-social-behaviour",
    "location_type": "Force",
    "location": {
      "latitude": "51.898839",
      "street": {
        "id": 707922,
        "name": "On or near Parking Area"
      },
      "longitude": "-2.082270"
    },
    "context": "",
    "outcome_status": null,
    "persistent_id": "",
    "id": 89289230,
    "location_subtype": "",
    "month": "2020-12"
  },
  {
    "category": "anti-social-behaviour",
    "location_type": "Force",
    "location": {
      "latitude": "51.901599",
      "street": {
        "id": 707897,
        "name": "On or near Pates Avenue"
      },
      "longitude": "-2.094223"
    },
    "context": "",
    "outcome_status": null,
    "persistent_id": "",
    "id": 89289232,
    "location_subtype": "",
    "month": "2020-12"
  },
  {
    "category": "anti-social-behaviour",
    "location_type": "Force",
    "location": {
      "latitude": "51.907796",
      "street": {
        "id": 708460,
        "name": "On or near Montreal Drive"
      },
      "longitude": "-2.111330"
    },
    "context": "",
    "outcome_status": null,
    "persistent_id": "",
    "id": 89289235,
    "location_subtype": "",
    "month": "2020-12"
  },
  {
    "category": "anti-social-behaviour",
    "location_type": "Force",
    "location": {
      "latitude": "51.907849",
      "street": {
        "id": 708467,
        "name": "On or near Lechmere Road"
      },
      "longitude": "-2.113118"
    },
    "context": "",
    "outcome_status": null,
    "persistent_id": "",
    "id": 89289237,
    "location_subtype": "",
    "month": "2020-12"
  },
  {
    "category": "anti-social-behaviour",
    "location_type": "Force",
    "location": {
      "latitude": "51.902580",
      "street": {
        "id": 707910,
        "name": "On or near Chapel Street"
      },
      "longitude": "-2.080112"
    },
    "context": "",
    "outcome_status": null,
    "persistent_id": "",
    "id": 89289242,
    "location_subtype": "",
    "month": "2020-12"
  },
  {
    "category": "anti-social-behaviour",
    "location_type": "Force",
    "location": {
      "latitude": "51.911134",
      "street": {
        "id": 708360,
        "name": "On or near Beaumont Drive"
      },
      "longitude": "-2.118738"
    },
    "context": "",
    "outcome_status": null,
    "persistent_id": "",
    "id": 89289247,
    "location_subtype": "",
    "month": "2020-12"
  },
  {
    "category": "anti-social-behaviour",
    "location_type": "Force",
    "location": {
      "latitude": "51.895133",
      "street": {
        "id": 707919,
        "name": "On or near Queens Lane"
      },
      "longitude": "-2.084371"
    },
    "context": "",
    "outcome_status": null,
    "persistent_id": "",
    "id": 89289250,
    "location_subtype": "",
    "month": "2020-12"
  },
  {
    "category": "anti-social-behaviour",
    "location_type": "Force",
    "location": {
      "latitude": "51.903067",
      "street": {
        "id": 707905,
        "name": "On or near High Street"
      },
      "longitude": "-2.079022"
    },
    "context": "",
    "outcome_status": null,
    "persistent_id": "",
    "id": 89289260,
    "location_subtype": "",
    "month": "2020-12"
  },
  {
    "category": "anti-social-behaviour",
    "location_type": "Force",
    "location": {
      "latitude": "51.914793",
      "street": {
        "id": 708419,
        "name": "On or near Shopping Area"
      },
      "longitude": "-2.099557"
    },
    "context": "",
    "outcome_status": null,
    "persistent_id": "",
    "id": 89288499,
    "location_subtype": "",
    "month": "2020-12"
  },
  {
    "category": "anti-social-behaviour",
    "location_type": "Force",
    "location": {
      "latitude": "51.912412",
      "street": {
        "id": 708492,
        "name": "On or near Barlow Road"
      },
      "longitude": "-2.108201"
    },
    "context": "",
    "outcome_status": null,
    "persistent_id": "",
    "id": 89288506,
    "location_subtype": "",
    "month": "2020-12"
  },
  {
    "category": "anti-social-behaviour",
    "location_type": "Force",
    "location": {
      "latitude": "51.907796",
      "street": {
        "id": 708460,
        "name": "On or near Montreal Drive"
      },
      "longitude": "-2.111330"
    },
    "context": "",
    "outcome_status": null,
    "persistent_id": "",
    "id": 89288515,
    "location_subtype": "",
    "month": "2020-12"
  },
  {
    "category": "anti-social-behaviour",
    "location_type": "Force",
    "location": {
      "latitude": "51.903235",
      "street": {
        "id": 708061,
        "name": "On or near Yalta Close"
      },
      "longitude": "-2.114328"
    },
    "context": "",
    "outcome_status": null,
    "persistent_id": "",
    "id": 89288516,
    "location_subtype": "",
    "month": "2020-12"
  },
  {
    "category": "anti-social-behaviour",
    "location_type": "Force",
    "location": {
      "latitude": "51.910295",
      "street": {
        "id": 708447,
        "name": "On or near Pennington Court"
      },
      "longitude": "-2.112659"
    },
    "context": "",
    "outcome_status": null,
    "persistent_id": "",
    "id": 89288520,
    "location_subtype": "",
    "month": "2020-12"
  },
  {
    "category": "anti-social-behaviour",
    "location_type": "Force",
    "location": {
      "latitude": "51.917412",
      "street": {
        "id": 708925,
        "name": "On or near Huntscote Road"
      },
      "longitude": "-2.096640"
    },
    "context": "",
    "outcome_status": null,
    "persistent_id": "",
    "id": 89288535,
    "location_subtype": "",
    "month": "2020-12"
  },
  {
    "category": "anti-social-behaviour",
    "location_type": "Force",
    "location": {
      "latitude": "51.911412",
      "street": {
        "id": 708472,
        "name": "On or near Ismay Road"
      },
      "longitude": "-2.110438"
    },
    "context": "",
    "outcome_status": null,
    "persistent_id": "",
    "id": 89288968,
    "location_subtype": "",
    "month": "2020-12"
  },
  {
    "category": "anti-social-behaviour",
    "location_type": "Force",
    "location": {
      "latitude": "51.898864",
      "street": {
        "id": 707958,
        "name": "On or near Parabola Lane"
      },
      "longitude": "-2.083840"
    },
    "context": "",
    "outcome_status": null,
    "persistent_id": "",
    "id": 89288995,
    "location_subtype": "",
    "month": "2020-12"
  },
  {
    "category": "anti-social-behaviour",
    "location_type": "Force",
    "location": {
      "latitude": "51.905536",
      "street": {
        "id": 708606,
        "name": "On or near Granville Street"
      },
      "longitude": "-2.082966"
    },
    "context": "",
    "outcome_status": null,
    "persistent_id": "",
    "id": 89289005,
    "location_subtype": "",
    "month": "2020-12"
  },
  {
    "category": "anti-social-behaviour",
    "location_type": "Force",
    "location": {
      "latitude": "51.915127",
      "street": {
        "id": 708506,
        "name": "On or near Windyridge Gardens"
      },
      "longitude": "-2.086400"
    },
    "context": "",
    "outcome_status": null,
    "persistent_id": "",
    "id": 89289009,
    "location_subtype": "",
    "month": "2020-12"
  },
  {
    "category": "anti-social-behaviour",
    "location_type": "Force",
    "location": {
      "latitude": "51.897507",
      "street": {
        "id": 708095,
        "name": "On or near Wasley Road"
      },
      "longitude": "-2.115287"
    },
    "context": "",
    "outcome_status": null,
    "persistent_id": "",
    "id": 89289019,
    "location_subtype": "",
    "month": "2020-12"
  },
  {
    "category": "anti-social-behaviour",
    "location_type": "Force",
    "location": {
      "latitude": "51.911330",
      "street": {
        "id": 708442,
        "name": "On or near Providence Park"
      },
      "longitude": "-2.101788"
    },
    "context": "",
    "outcome_status": null,
    "persistent_id": "",
    "id": 89289021,
    "location_subtype": "",
    "month": "2020-12"
  },
  {
    "category": "anti-social-behaviour",
    "location_type": "Force",
    "location": {
      "latitude": "51.912367",
      "street": {
        "id": 708426,
        "name": "On or near Brook Road"
      },
      "longitude": "-2.097153"
    },
    "context": "",
    "outcome_status": null,
    "persistent_id": "",
    "id": 89289022,
    "location_subtype": "",
    "month": "2020-12"
  },
  {
    "category": "anti-social-behaviour",
    "location_type": "Force",
    "location": {
      "latitude": "51.903030",
      "street": {
        "id": 708181,
        "name": "On or near Heapey Close"
      },
      "longitude": "-2.121987"
    },
    "context": "",
    "outcome_status": null,
    "persistent_id": "",
    "id": 89289036,
    "location_subtype": "",
    "month": "2020-12"
  },
  {
    "category": "anti-social-behaviour",
    "location_type": "Force",
    "location": {
      "latitude": "51.903666",
      "street": {
        "id": 708551,
        "name": "On or near Burton Street"
      },
      "longitude": "-2.083195"
    },
    "context": "",
    "outcome_status": null,
    "persistent_id": "",
    "id": 89289038,
    "location_subtype": "",
    "month": "2020-12"
  },
  {
    "category": "anti-social-behaviour",
    "location_type": "Force",
    "location": {
      "latitude": "51.904337",
      "street": {
        "id": 708484,
        "name": "On or near Brooklyn Road"
      },
      "longitude": "-2.108952"
    },
    "context": "",
    "outcome_status": null,
    "persistent_id": "",
    "id": 89289040,
    "location_subtype": "",
    "month": "2020-12"
  },
  {
    "category": "anti-social-behaviour",
    "location_type": "Force",
    "location": {
      "latitude": "51.897378",
      "street": {
        "id": 708167,
        "name": "On or near Queen's Road"
      },
      "longitude": "-2.098850"
    },
    "context": "",
    "outcome_status": null,
    "persistent_id": "",
    "id": 89289043,
    "location_subtype": "",
    "month": "2020-12"
  },
  {
    "category": "anti-social-behaviour",
    "location_type": "Force",
    "location": {
      "latitude": "51.902453",
      "street": {
        "id": 708179,
        "name": "On or near Peacock Close"
      },
      "longitude": "-2.123221"
    },
    "context": "",
    "outcome_status": null,
    "persistent_id": "",
    "id": 89289550,
    "location_subtype": "",
    "month": "2020-12"
  },
  {
    "category": "anti-social-behaviour",
    "location_type": "Force",
    "location": {
      "latitude": "51.901805",
      "street": {
        "id": 707902,
        "name": "On or near Jessop Avenue"
      },
      "longitude": "-2.083409"
    },
    "context": "",
    "outcome_status": null,
    "persistent_id": "",
    "id": 89289542,
    "location_subtype": "",
    "month": "2020-12"
  },
  {
    "category": "anti-social-behaviour",
    "location_type": "Force",
    "location": {
      "latitude": "51.895490",
      "street": {
        "id": 707982,
        "name": "On or near Lansdown Crescent"
      },
      "longitude": "-2.087307"
    },
    "context": "",
    "outcome_status": null,
    "persistent_id": "",
    "id": 89289527,
    "location_subtype": "",
    "month": "2020-12"
  },
  {
    "category": "anti-social-behaviour",
    "location_type": "Force",
    "location": {
      "latitude": "51.896435",
      "street": {
        "id": 700957,
        "name": "On or near Lansdown Terrace Lane"
      },
      "longitude": "-2.086248"
    },
    "context": "",
    "outcome_status": null,
    "persistent_id": "",
    "id": 89289514,
    "location_subtype": "",
    "month": "2020-12"
  },
  {
    "category": "anti-social-behaviour",
    "location_type": "Force",
    "location": {
      "latitude": "51.895490",
      "street": {
        "id": 707982,
        "name": "On or near Lansdown Crescent"
      },
      "longitude": "-2.087307"
    },
    "context": "",
    "outcome_status": null,
    "persistent_id": "",
    "id": 89289512,
    "location_subtype": "",
    "month": "2020-12"
  },
  {
    "category": "anti-social-behaviour",
    "location_type": "Force",
    "location": {
      "latitude": "51.898863",
      "street": {
        "id": 708146,
        "name": "On or near Cowper Road"
      },
      "longitude": "-2.117412"
    },
    "context": "",
    "outcome_status": null,
    "persistent_id": "",
    "id": 89288947,
    "location_subtype": "",
    "month": "2020-12"
  },
  {
    "category": "anti-social-behaviour",
    "location_type": "Force",
    "location": {
      "latitude": "51.894717",
      "street": {
        "id": 707979,
        "name": "On or near Lansdown Place Lane"
      },
      "longitude": "-2.087465"
    },
    "context": "",
    "outcome_status": null,
    "persistent_id": "",
    "id": 89288957,
    "location_subtype": "",
    "month": "2020-12"
  },
  {
    "category": "anti-social-behaviour",
    "location_type": "Force",
    "location": {
      "latitude": "51.901599",
      "street": {
        "id": 707897,
        "name": "On or near Pates Avenue"
      },
      "longitude": "-2.094223"
    },
    "context": "",
    "outcome_status": null,
    "persistent_id": "",
    "id": 89288943,
    "location_subtype": "",
    "month": "2020-12"
  },
  {
    "category": "anti-social-behaviour",
    "location_type": "Force",
    "location": {
      "latitude": "51.897378",
      "street": {
        "id": 708167,
        "name": "On or near Queen's Road"
      },
      "longitude": "-2.098850"
    },
    "context": "",
    "outcome_status": null,
    "persistent_id": "",
    "id": 89288937,
    "location_subtype": "",
    "month": "2020-12"
  },
  {
    "category": "anti-social-behaviour",
    "location_type": "Force",
    "location": {
      "latitude": "51.901599",
      "street": {
        "id": 707897,
        "name": "On or near Pates Avenue"
      },
      "longitude": "-2.094223"
    },
    "context": "",
    "outcome_status": null,
    "persistent_id": "",
    "id": 89288932,
    "location_subtype": "",
    "month": "2020-12"
  },
  {
    "category": "anti-social-behaviour",
    "location_type": "Force",
    "location": {
      "latitude": "51.908370",
      "street": {
        "id": 708630,
        "name": "On or near Aldridge Close"
      },
      "longitude": "-2.081372"
    },
    "context": "",
    "outcome_status": null,
    "persistent_id": "",
    "id": 89288929,
    "location_subtype": "",
    "month": "2020-12"
  },
  {
    "category": "anti-social-behaviour",
    "location_type": "Force",
    "location": {
      "latitude": "51.909738",
      "street": {
        "id": 708497,
        "name": "On or near Sports/recreation Area"
      },
      "longitude": "-2.111393"
    },
    "context": "",
    "outcome_status": null,
    "persistent_id": "",
    "id": 89288920,
    "location_subtype": "",
    "month": "2020-12"
  },
  {
    "category": "anti-social-behaviour",
    "location_type": "Force",
    "location": {
      "latitude": "51.903067",
      "street": {
        "id": 707905,
        "name": "On or near High Street"
      },
      "longitude": "-2.079022"
    },
    "context": "",
    "outcome_status": null,
    "persistent_id": "",
    "id": 89288916,
    "location_subtype": "",
    "month": "2020-12"
  },
  {
    "category": "anti-social-behaviour",
    "location_type": "Force",
    "location": {
      "latitude": "51.894985",
      "street": {
        "id": 707981,
        "name": "On or near Lansdown Parade"
      },
      "longitude": "-2.090212"
    },
    "context": "",
    "outcome_status": null,
    "persistent_id": "",
    "id": 89288913,
    "location_subtype": "",
    "month": "2020-12"
  },
  {
    "category": "anti-social-behaviour",
    "location_type": "Force",
    "location": {
      "latitude": "51.905518",
      "street": {
        "id": 708499,
        "name": "On or near Sports/recreation Area"
      },
      "longitude": "-2.105699"
    },
    "context": "",
    "outcome_status": null,
    "persistent_id": "",
    "id": 89288909,
    "location_subtype": "",
    "month": "2020-12"
  },
  {
    "category": "anti-social-behaviour",
    "location_type": "Force",
    "location": {
      "latitude": "51.908600",
      "street": {
        "id": 708570,
        "name": "On or near Swindon Close"
      },
      "longitude": "-2.086140"
    },
    "context": "",
    "outcome_status": null,
    "persistent_id": "",
    "id": 89288907,
    "location_subtype": "",
    "month": "2020-12"
  },
  {
    "category": "anti-social-behaviour",
    "location_type": "Force",
    "location": {
      "latitude": "51.910301",
      "street": {
        "id": 708575,
        "name": "On or near St Peters Close"
      },
      "longitude": "-2.095607"
    },
    "context": "",
    "outcome_status": null,
    "persistent_id": "",
    "id": 89288906,
    "location_subtype": "",
    "month": "2020-12"
  },
  {
    "category": "anti-social-behaviour",
    "location_type": "Force",
    "location": {
      "latitude": "51.910623",
      "street": {
        "id": 708425,
        "name": "On or near Moors Avenue"
      },
      "longitude": "-2.096931"
    },
    "context": "",
    "outcome_status": null,
    "persistent_id": "",
    "id": 89288903,
    "location_subtype": "",
    "month": "2020-12"
  },
  {
    "category": "anti-social-behaviour",
    "location_type": "Force",
    "location": {
      "latitude": "51.906068",
      "street": {
        "id": 708438,
        "name": "On or near South Bank"
      },
      "longitude": "-2.103927"
    },
    "context": "",
    "outcome_status": null,
    "persistent_id": "",
    "id": 89288889,
    "location_subtype": "",
    "month": "2020-12"
  },
  {
    "category": "anti-social-behaviour",
    "location_type": "Force",
    "location": {
      "latitude": "51.895133",
      "street": {
        "id": 707919,
        "name": "On or near Queens Lane"
      },
      "longitude": "-2.084371"
    },
    "context": "",
    "outcome_status": null,
    "persistent_id": "",
    "id": 89288887,
    "location_subtype": "",
    "month": "2020-12"
  },
  {
    "category": "bicycle-theft",
    "location_type": "BTP",
    "location": {
      "latitude": "51.897300",
      "street": {
        "id": 1489246,
        "name": "Cheltenham Spa (station)"
      },
      "longitude": "-2.099820"
    },
    "context": "",
    "outcome_status": {
      "category": "Under investigation",
      "date": "2020-12"
    },
    "persistent_id": "",
    "id": 89407041,
    "location_subtype": "STATION",
    "month": "2020-12"
  },
  {
    "category": "bicycle-theft",
    "location_type": "Force",
    "location": {
      "latitude": "51.899254",
      "street": {
        "id": 707947,
        "name": "On or near Royal Well Place"
      },
      "longitude": "-2.079452"
    },
    "context": "",
    "outcome_status": {
      "category": "Investigation complete; no suspect identified",
      "date": "2020-12"
    },
    "persistent_id": "c2d837fa053da4f3a545211013642a65a3051a0e8e07fc1f88591aa58d6df9ec",
    "id": 89285806,
    "location_subtype": "",
    "month": "2020-12"
  },
  {
    "category": "bicycle-theft",
    "location_type": "Force",
    "location": {
      "latitude": "51.902572",
      "street": {
        "id": 708078,
        "name": "On or near Edinburgh Place"
      },
      "longitude": "-2.112349"
    },
    "context": "",
    "outcome_status": {
      "category": "Under investigation",
      "date": "2020-12"
    },
    "persistent_id": "1d3df8c4bf1168a42741a968a148d51d2cb9740af3ba4f54463da172c5cc36bb",
    "id": 89286922,
    "location_subtype": "",
    "month": "2020-12"
  },
  {
    "category": "bicycle-theft",
    "location_type": "Force",
    "location": {
      "latitude": "51.903792",
      "street": {
        "id": 708548,
        "name": "On or near Park Street"
      },
      "longitude": "-2.083675"
    },
    "context": "",
    "outcome_status": {
      "category": "Under investigation",
      "date": "2020-12"
    },
    "persistent_id": "342dc3cf7a785d70b9e83b333a5cdb72fe1ecc5209b8a8ca6dc8c2f62cffd4a7",
    "id": 89287066,
    "location_subtype": "",
    "month": "2020-12"
  },
  {
    "category": "bicycle-theft",
    "location_type": "Force",
    "location": {
      "latitude": "51.902406",
      "street": {
        "id": 707918,
        "name": "On or near Petrol Station"
      },
      "longitude": "-2.085547"
    },
    "context": "",
    "outcome_status": {
      "category": "Under investigation",
      "date": "2020-12"
    },
    "persistent_id": "3e8e2ffe56a451b593993fce8f72a47fdca81e86ee9a7e342f27fd3fc473ac95",
    "id": 89287180,
    "location_subtype": "",
    "month": "2020-12"
  },
  {
    "category": "bicycle-theft",
    "location_type": "Force",
    "location": {
      "latitude": "51.905800",
      "street": {
        "id": 708532,
        "name": "On or near St Paul's Lane"
      },
      "longitude": "-2.078707"
    },
    "context": "",
    "outcome_status": {
      "category": "Investigation complete; no suspect identified",
      "date": "2020-12"
    },
    "persistent_id": "b962ba44372d95615efea2efabdf651a2a81bf41346575490cad6356ba431aa3",
    "id": 89287178,
    "location_subtype": "",
    "month": "2020-12"
  },
  {
    "category": "burglary",
    "location_type": "Force",
    "location": {
      "latitude": "51.896479",
      "street": {
        "id": 708169,
        "name": "On or near Kensington Avenue"
      },
      "longitude": "-2.098819"
    },
    "context": "",
    "outcome_status": {
      "category": "Investigation complete; no suspect identified",
      "date": "2020-12"
    },
    "persistent_id": "76b763ff32d2171350f611a738f49bca48c73785f0636f0ba6cbcea38a5fdd4a",
    "id": 89285801,
    "location_subtype": "",
    "month": "2020-12"
  },
  {
    "category": "burglary",
    "location_type": "Force",
    "location": {
      "latitude": "51.906488",
      "street": {
        "id": 708562,
        "name": "On or near Townsend Street"
      },
      "longitude": "-2.084407"
    },
    "context": "",
    "outcome_status": {
      "category": "Under investigation",
      "date": "2020-12"
    },
    "persistent_id": "333dca356be0f5ffeef28f7d471066826116aff2baf21c6272f3d04ba3c6f337",
    "id": 89286937,
    "location_subtype": "",
    "month": "2020-12"
  },
  {
    "category": "burglary",
    "location_type": "Force",
    "location": {
      "latitude": "51.916034",
      "street": {
        "id": 708402,
        "name": "On or near Newland View"
      },
      "longitude": "-2.109126"
    },
    "context": "",
    "outcome_status": {
      "category": "Under investigation",
      "date": "2020-12"
    },
    "persistent_id": "0c654cd4b7e6ffc892451911c27b427ab4eff4ba02be998ce6257975aa6f65f1",
    "id": 89286448,
    "location_subtype": "",
    "month": "2020-12"
  },
  {
    "category": "burglary",
    "location_type": "Force",
    "location": {
      "latitude": "51.902006",
      "street": {
        "id": 708085,
        "name": "On or near Britten Place"
      },
      "longitude": "-2.111505"
    },
    "context": "",
    "outcome_status": {
      "category": "Under investigation",
      "date": "2020-12"
    },
    "persistent_id": "2085f9f45afdf9dffb55bb8ec98c27f4207d61df446d50be3e7feeb2db6018dd",
    "id": 89286923,
    "location_subtype": "",
    "month": "2020-12"
  },
  {
    "category": "burglary",
    "location_type": "Force",
    "location": {
      "latitude": "51.896895",
      "street": {
        "id": 708138,
        "name": "On or near Gloucester Road"
      },
      "longitude": "-2.116462"
    },
    "context": "",
    "outcome_status": {
      "category": "Under investigation",
      "date": "2020-12"
    },
    "persistent_id": "756e5b898c57e90eafc4363c6565004aa28934826cd269aa8e49c22e4d809db4",
    "id": 89286426,
    "location_subtype": "",
    "month": "2020-12"
  },
  {
    "category": "burglary",
    "location_type": "Force",
    "location": {
      "latitude": "51.901877",
      "street": {
        "id": 708180,
        "name": "On or near Kempton Grove"
      },
      "longitude": "-2.124149"
    },
    "context": "",
    "outcome_status": {
      "category": "Under investigation",
      "date": "2020-12"
    },
    "persistent_id": "8214894711928a4dbd3f97058bf50c3d1eb79f0172a6792e5c7d04da932151a6",
    "id": 89286512,
    "location_subtype": "",
    "month": "2020-12"
  },
  {
    "category": "burglary",
    "location_type": "Force",
    "location": {
      "latitude": "51.907238",
      "street": {
        "id": 708462,
        "name": "On or near Merriville Gardens"
      },
      "longitude": "-2.102433"
    },
    "context": "",
    "outcome_status": {
      "category": "Under investigation",
      "date": "2020-12"
    },
    "persistent_id": "2ecd3685bcf830b34a203781f3b916159b23036b343fe67aecf4b0ad2ebfe093",
    "id": 89286631,
    "location_subtype": "",
    "month": "2020-12"
  },
  {
    "category": "burglary",
    "location_type": "Force",
    "location": {
      "latitude": "51.907909",
      "street": {
        "id": 708449,
        "name": "On or near Orchard Way"
      },
      "longitude": "-2.106315"
    },
    "context": "",
    "outcome_status": {
      "category": "Under investigation",
      "date": "2020-12"
    },
    "persistent_id": "e4a85ecae2aab7ef83992511c1f6b07e37c83b4e863a851cab6a2cc50e9b6ddf",
    "id": 89286833,
    "location_subtype": "",
    "month": "2020-12"
  },
  {
    "category": "burglary",
    "location_type": "Force",
    "location": {
      "latitude": "51.896826",
      "street": {
        "id": 708143,
        "name": "On or near Fairmount Road"
      },
      "longitude": "-2.103383"
    },
    "context": "",
    "outcome_status": {
      "category": "Under investigation",
      "date": "2020-12"
    },
    "persistent_id": "ac25b1f9b389402754fbc73175a903b9540c875bbca29da72484a00e93041a55",
    "id": 89285825,
    "location_subtype": "",
    "month": "2020-12"
  },
  {
    "category": "burglary",
    "location_type": "Force",
    "location": {
      "latitude": "51.909314",
      "street": {
        "id": 708486,
        "name": "On or near Brooklyn Close"
      },
      "longitude": "-2.103164"
    },
    "context": "",
    "outcome_status": {
      "category": "Investigation complete; no suspect identified",
      "date": "2020-12"
    },
    "persistent_id": "93fbfde6752852d434ac20336c6901043cd44a5568dfccbf6b061eca0b8c8e86",
    "id": 89286963,
    "location_subtype": "",
    "month": "2020-12"
  },
  {
    "category": "burglary",
    "location_type": "Force",
    "location": {
      "latitude": "51.907849",
      "street": {
        "id": 708467,
        "name": "On or near Lechmere Road"
      },
      "longitude": "-2.113118"
    },
    "context": "",
    "outcome_status": {
      "category": "Under investigation",
      "date": "2020-12"
    },
    "persistent_id": "9f7177de668852d190ae78ad48245c3f0ef043fd2abeb03d1af0011e03672f26",
    "id": 89285800,
    "location_subtype": "",
    "month": "2020-12"
  },
  {
    "category": "burglary",
    "location_type": "Force",
    "location": {
      "latitude": "51.899127",
      "street": {
        "id": 708131,
        "name": "On or near Grimwade Close"
      },
      "longitude": "-2.104420"
    },
    "context": "",
    "outcome_status": {
      "category": "Under investigation",
      "date": "2020-12"
    },
    "persistent_id": "971bdec87135bf588ad3871d69546ea75d78bf14275f30e947b02200afc97671",
    "id": 89286764,
    "location_subtype": "",
    "month": "2020-12"
  },
  {
    "category": "burglary",
    "location_type": "Force",
    "location": {
      "latitude": "51.896404",
      "street": {
        "id": 707997,
        "name": "On or near Christ Church Road"
      },
      "longitude": "-2.092381"
    },
    "context": "",
    "outcome_status": {
      "category": "Under investigation",
      "date": "2020-12"
    },
    "persistent_id": "77007c0ab0042da643a1ba74d210c9031130d2a3e04758b02fc33264533bc346",
    "id": 89285803,
    "location_subtype": "",
    "month": "2020-12"
  },
  {
    "category": "burglary",
    "location_type": "Force",
    "location": {
      "latitude": "51.905050",
      "street": {
        "id": 708602,
        "name": "On or near High Street"
      },
      "longitude": "-2.083837"
    },
    "context": "",
    "outcome_status": {
      "category": "Under investigation",
      "date": "2020-12"
    },
    "persistent_id": "1912b539d0a7e145cce23c2cdab4c088e51e8585074b43ef95de26afbc7649cf",
    "id": 89287547,
    "location_subtype": "",
    "month": "2020-12"
  },
  {
    "category": "burglary",
    "location_type": "Force",
    "location": {
      "latitude": "51.905050",
      "street": {
        "id": 708602,
        "name": "On or near High Street"
      },
      "longitude": "-2.083837"
    },
    "context": "",
    "outcome_status": {
      "category": "Under investigation",
      "date": "2020-12"
    },
    "persistent_id": "d2e3b9acde0d4a79e61d67dda6be0c190a57b1296990d00eef4fccc7232dc3a4",
    "id": 89287548,
    "location_subtype": "",
    "month": "2020-12"
  },
  {
    "category": "burglary",
    "location_type": "Force",
    "location": {
      "latitude": "51.909314",
      "street": {
        "id": 708486,
        "name": "On or near Brooklyn Close"
      },
      "longitude": "-2.103164"
    },
    "context": "",
    "outcome_status": {
      "category": "Investigation complete; no suspect identified",
      "date": "2020-12"
    },
    "persistent_id": "6c4165099f257b363e71da010f6ae69ff69c0cc1ff923d7d742744216d7040c7",
    "id": 89286962,
    "location_subtype": "",
    "month": "2020-12"
  },
  {
    "category": "burglary",
    "location_type": "Force",
    "location": {
      "latitude": "51.897101",
      "street": {
        "id": 708092,
        "name": "On or near Pedestrian Subway"
      },
      "longitude": "-2.117189"
    },
    "context": "",
    "outcome_status": {
      "category": "Investigation complete; no suspect identified",
      "date": "2020-12"
    },
    "persistent_id": "916bb2aed9b048756005358b62f77b0d243df43b8a0e2e655ecd2f3cb1487a30",
    "id": 89287367,
    "location_subtype": "",
    "month": "2020-12"
  },
  {
    "category": "burglary",
    "location_type": "Force",
    "location": {
      "latitude": "51.907367",
      "street": {
        "id": 708356,
        "name": "On or near Falkland Place"
      },
      "longitude": "-2.118583"
    },
    "context": "",
    "outcome_status": {
      "category": "Unable to prosecute suspect",
      "date": "2020-12"
    },
    "persistent_id": "24435bdec7ffbed73bcdfd6e99389ae38e51b41b5d1b74d7101ffe8a191b57a8",
    "id": 89286890,
    "location_subtype": "",
    "month": "2020-12"
  },
  {
    "category": "burglary",
    "location_type": "Force",
    "location": {
      "latitude": "51.900384",
      "street": {
        "id": 708152,
        "name": "On or near Cambridge Avenue"
      },
      "longitude": "-2.105803"
    },
    "context": "",
    "outcome_status": {
      "category": "Investigation complete; no suspect identified",
      "date": "2020-12"
    },
    "persistent_id": "077469afaadc78ba42d6310d68a1cab2097c3ceedc47c517064148c44373709b",
    "id": 89286449,
    "location_subtype": "",
    "month": "2020-12"
  },
  {
    "category": "burglary",
    "location_type": "Force",
    "location": {
      "latitude": "51.909747",
      "street": {
        "id": 708613,
        "name": "On or near Elm Close"
      },
      "longitude": "-2.090954"
    },
    "context": "",
    "outcome_status": {
      "category": "Investigation complete; no suspect identified",
      "date": "2020-12"
    },
    "persistent_id": "6a469118d71de0908d7c58a3ac548a8b05c783a7533c7fd2945f282ac351e7f9",
    "id": 89286846,
    "location_subtype": "",
    "month": "2020-12"
  },
  {
    "category": "burglary",
    "location_type": "Force",
    "location": {
      "latitude": "51.896479",
      "street": {
        "id": 708169,
        "name": "On or near Kensington Avenue"
      },
      "longitude": "-2.098819"
    },
    "context": "",
    "outcome_status": {
      "category": "Investigation complete; no suspect identified",
      "date": "2020-12"
    },
    "persistent_id": "aa4de85d8eeec7a3ea5b88e71d4fbe7ef9e9f8783fb4ea29bf113c2cade30341",
    "id": 89285802,
    "location_subtype": "",
    "month": "2020-12"
  },
  {
    "category": "criminal-damage-arson",
    "location_type": "Force",
    "location": {
      "latitude": "51.899684",
      "street": {
        "id": 708103,
        "name": "On or near Shelley Avenue"
      },
      "longitude": "-2.113955"
    },
    "context": "",
    "outcome_status": {
      "category": "Under investigation",
      "date": "2020-12"
    },
    "persistent_id": "bfc0b6eafca973d4a8a2e5151e90853d3cec0e3ecd44b6cffc481af942f509a9",
    "id": 89286648,
    "location_subtype": "",
    "month": "2020-12"
  },
  {
    "category": "criminal-damage-arson",
    "location_type": "Force",
    "location": {
      "latitude": "51.907251",
      "street": {
        "id": 708581,
        "name": "On or near Russell Place"
      },
      "longitude": "-2.086647"
    },
    "context": "",
    "outcome_status": {
      "category": "Investigation complete; no suspect identified",
      "date": "2020-12"
    },
    "persistent_id": "9359f6cd104438c758eee213175edbfee49d0aab3dcce45c96dbe263291d5028",
    "id": 89287220,
    "location_subtype": "",
    "month": "2020-12"
  },
  {
    "category": "criminal-damage-arson",
    "location_type": "Force",
    "location": {
      "latitude": "51.907306",
      "street": {
        "id": 708627,
        "name": "On or near Baker Street"
      },
      "longitude": "-2.084408"
    },
    "context": "",
    "outcome_status": {
      "category": "Under investigation",
      "date": "2020-12"
    },
    "persistent_id": "f61d54163af10dad1b7ee82cd466f5321ea87b3164044ebc8d5d369b3e30eab8",
    "id": 89285337,
    "location_subtype": "",
    "month": "2020-12"
  },
  {
    "category": "criminal-damage-arson",
    "location_type": "Force",
    "location": {
      "latitude": "51.897507",
      "street": {
        "id": 708095,
        "name": "On or near Wasley Road"
      },
      "longitude": "-2.115287"
    },
    "context": "",
    "outcome_status": {
      "category": "Under investigation",
      "date": "2020-12"
    },
    "persistent_id": "7da31bc9aa2ee0499fa31cd2aff1f22bae7fe3775d5d24ab38fb298eb040e9be",
    "id": 89286901,
    "location_subtype": "",
    "month": "2020-12"
  },
  {
    "category": "criminal-damage-arson",
    "location_type": "Force",
    "location": {
      "latitude": "51.914246",
      "street": {
        "id": 708418,
        "name": "On or near Shopping Area"
      },
      "longitude": "-2.117060"
    },
    "context": "",
    "outcome_status": {
      "category": "Under investigation",
      "date": "2020-12"
    },
    "persistent_id": "d6cabb0eac8d58cfbdf374db829778fad3e6f774137eb7fb09fa52f7d2f91346",
    "id": 89285543,
    "location_subtype": "",
    "month": "2020-12"
  },
  {
    "category": "criminal-damage-arson",
    "location_type": "Force",
    "location": {
      "latitude": "51.899684",
      "street": {
        "id": 708103,
        "name": "On or near Shelley Avenue"
      },
      "longitude": "-2.113955"
    },
    "context": "",
    "outcome_status": {
      "category": "Under investigation",
      "date": "2020-12"
    },
    "persistent_id": "9c98a1451075af48fb6fbcea9186d8be2f1b9f8d03dfcaaa9b4d257c777f411c",
    "id": 89286645,
    "location_subtype": "",
    "month": "2020-12"
  },
  {
    "category": "criminal-damage-arson",
    "location_type": "Force",
    "location": {
      "latitude": "51.899684",
      "street": {
        "id": 708103,
        "name": "On or near Shelley Avenue"
      },
      "longitude": "-2.113955"
    },
    "context": "",
    "outcome_status": {
      "category": "Under investigation",
      "date": "2020-12"
    },
    "persistent_id": "427ece4f982bc5ff4dc6154118c6f4463d5fbca9b37d80800e183b09753f4eea",
    "id": 89286644,
    "location_subtype": "",
    "month": "2020-12"
  },
  {
    "category": "criminal-damage-arson",
    "location_type": "Force",
    "location": {
      "latitude": "51.900216",
      "street": {
        "id": 708106,
        "name": "On or near Shakespeare Road"
      },
      "longitude": "-2.112154"
    },
    "context": "",
    "outcome_status": {
      "category": "Under investigation",
      "date": "2020-12"
    },
    "persistent_id": "243a9b88dac7f89914178131eb1233d8a0ae046c5bc11dd0c2fe9fd3beb6aeb7",
    "id": 89286599,
    "location_subtype": "",
    "month": "2020-12"
  },
  {
    "category": "criminal-damage-arson",
    "location_type": "Force",
    "location": {
      "latitude": "51.915054",
      "street": {
        "id": 708505,
        "name": "On or near Windyridge Road"
      },
      "longitude": "-2.088232"
    },
    "context": "",
    "outcome_status": {
      "category": "Under investigation",
      "date": "2020-12"
    },
    "persistent_id": "15379fde84100d51edca705e50269f2bed2d825671265b230cf8b7ea8477fd41",
    "id": 89286493,
    "location_subtype": "",
    "month": "2020-12"
  },
  {
    "category": "criminal-damage-arson",
    "location_type": "Force",
    "location": {
      "latitude": "51.915054",
      "street": {
        "id": 708505,
        "name": "On or near Windyridge Road"
      },
      "longitude": "-2.088232"
    },
    "context": "",
    "outcome_status": {
      "category": "Under investigation",
      "date": "2020-12"
    },
    "persistent_id": "dee9978bd62ba29626c0333c6dd8f146a9a5e2f755f9db067a62ea4006007046",
    "id": 89286492,
    "location_subtype": "",
    "month": "2020-12"
  },
  {
    "category": "criminal-damage-arson",
    "location_type": "Force",
    "location": {
      "latitude": "51.898934",
      "street": {
        "id": 707960,
        "name": "On or near Overton Road"
      },
      "longitude": "-2.086660"
    },
    "context": "",
    "outcome_status": {
      "category": "Investigation complete; no suspect identified",
      "date": "2020-12"
    },
    "persistent_id": "dab06940bf3fc4b5e82f79126e801ac18fc19a038a68910625ff560e59f0d997",
    "id": 89285530,
    "location_subtype": "",
    "month": "2020-12"
  },
  {
    "category": "criminal-damage-arson",
    "location_type": "Force",
    "location": {
      "latitude": "51.904793",
      "street": {
        "id": 708567,
        "name": "On or near Swindon Road"
      },
      "longitude": "-2.078996"
    },
    "context": "",
    "outcome_status": {
      "category": "Investigation complete; no suspect identified",
      "date": "2020-12"
    },
    "persistent_id": "eaaf703f1be8247037e098dcd67ee396f74b5cb3eececa7ce4fa61624dd2d532",
    "id": 89285788,
    "location_subtype": "",
    "month": "2020-12"
  },
  {
    "category": "criminal-damage-arson",
    "location_type": "Force",
    "location": {
      "latitude": "51.907849",
      "street": {
        "id": 708467,
        "name": "On or near Lechmere Road"
      },
      "longitude": "-2.113118"
    },
    "context": "",
    "outcome_status": {
      "category": "Unable to prosecute suspect",
      "date": "2020-12"
    },
    "persistent_id": "25402111eb17778ca53076da430b13eada9bcd0aa4217ef58c59d5251fa6ab64",
    "id": 89285797,
    "location_subtype": "",
    "month": "2020-12"
  },
  {
    "category": "criminal-damage-arson",
    "location_type": "Force",
    "location": {
      "latitude": "51.900098",
      "street": {
        "id": 707921,
        "name": "On or near Parking Area"
      },
      "longitude": "-2.081575"
    },
    "context": "",
    "outcome_status": {
      "category": "Investigation complete; no suspect identified",
      "date": "2020-12"
    },
    "persistent_id": "8b8be5b27cfd13093ab5cd2f10190e0af94be8beefdd3ef34ff97d46ebded605",
    "id": 89286327,
    "location_subtype": "",
    "month": "2020-12"
  },
  {
    "category": "criminal-damage-arson",
    "location_type": "Force",
    "location": {
      "latitude": "51.899684",
      "street": {
        "id": 708103,
        "name": "On or near Shelley Avenue"
      },
      "longitude": "-2.113955"
    },
    "context": "",
    "outcome_status": {
      "category": "Investigation complete; no suspect identified",
      "date": "2020-12"
    },
    "persistent_id": "994ba2d9683cef767156d89a8667e061a5f00b3e934c619cb2bdea3e9a1c14c2",
    "id": 89286646,
    "location_subtype": "",
    "month": "2020-12"
  },
  {
    "category": "criminal-damage-arson",
    "location_type": "Force",
    "location": {
      "latitude": "51.899684",
      "street": {
        "id": 708103,
        "name": "On or near Shelley Avenue"
      },
      "longitude": "-2.113955"
    },
    "context": "",
    "outcome_status": {
      "category": "Investigation complete; no suspect identified",
      "date": "2020-12"
    },
    "persistent_id": "609b78c396fbb912ea74ee0d3abca2a9780446091c64c87504985522409bcc1c",
    "id": 89286647,
    "location_subtype": "",
    "month": "2020-12"
  },
  {
    "category": "criminal-damage-arson",
    "location_type": "Force",
    "location": {
      "latitude": "51.898925",
      "street": {
        "id": 708226,
        "name": "On or near Hubble Road"
      },
      "longitude": "-2.118226"
    },
    "context": "",
    "outcome_status": {
      "category": "Investigation complete; no suspect identified",
      "date": "2020-12"
    },