[
  {
    "category": "anti-social-behaviour",
    "location_type": "Force",
    "location": {
      "latitude": "51.899151",
      "street": {
        "id": 708162,
        "name": "On or near Stow Court"
      },
      "longitude": "-2.097473"
    },
    "context": "",
    "outcome_status": null,
    "persistent_id": "",
    "id": 91340682,
    "location_subtype": "",
    "month": "2021-03"
  },
  {
    "category": "anti-social-behaviour",
    "location_type": "Force",
    "location": {
      "latitude": "51.910346",
      "street": {
        "id": 708593,
        "name": "On or near Marsh Drive"
      },
      "longitude": "-2.083629"
    },
    "context": "",
    "outcome_status": null,
    "persistent_id": "",
    "id": 91341827,
    "location_subtype": "",
    "month": "2021-03"
  },
  {
    "category": "anti-social-behaviour",
    "location_type": "Force",
    "location": {
      "latitude": "51.896913",
      "street": {
        "id": 700956,
        "name": "On or near Griffiths Avenue"
      },
      "longitude": "-2.106173"
    },
    "context": "",
    "outcome_status": null,
    "persistent_id": "",
    "id": 91341825,
    "location_subtype": "",
    "month": "2021-03"
  },
  {
    "category": "anti-social-behaviour",
    "location_type": "Force",
    "location": {
      "latitude": "51.905711",
      "street": {
        "id": 708489,
        "name": "On or near Blenheim Square"
      },
      "longitude": "-2.110642"
    },
    "context": "",
    "outcome_status": null,
    "persistent_id": "",
    "id": 91341816,
    "location_subtype": "",
    "month": "2021-03"
  },
  {
    "category": "anti-social-behaviour",
    "location_type": "Force",
    "location": {
      "latitude": "51.918041",
      "street": {
        "id": 700925,
        "name": "On or near Supermarket"
      },
      "longitude": "-2.106761"
    },
    "context": "",
    "outcome_status": null,
    "persistent_id": "",
    "id": 91341810,
    "location_subtype": "",
    "month": "2021-03"
  },
  {
    "category": "anti-social-behaviour",
    "location_type": "Force",
    "location": {
      "latitude": "51.892648",
      "street": {
        "id": 708007,
        "name": "On or near Andover Road"
      },
      "longitude": "-2.088348"
    },
    "context": "",
    "outcome_status": null,
    "persistent_id": "",
    "id": 91341776,
    "location_subtype": "",
    "month": "2021-03"
  },
  {
    "category": "anti-social-behaviour",
    "location_type": "Force",
    "location": {
      "latitude": "51.908500",
      "street": {
        "id": 708352,
        "name": "On or near Hester's Way Road"
      },
      "longitude": "-2.118179"
    },
    "context": "",
    "outcome_status": null,
    "persistent_id": "",
    "id": 91341752,
    "location_subtype": "",
    "month": "2021-03"
  },
  {
    "category": "anti-social-behaviour",
    "location_type": "Force",
    "location": {
      "latitude": "51.905647",
      "street": {
        "id": 708530,
        "name": "On or near St Paul's Street North"
      },
      "longitude": "-2.078227"
    },
    "context": "",
    "outcome_status": null,
    "persistent_id": "",
    "id": 91341738,
    "location_subtype": "",
    "month": "2021-03"
  },
  {
    "category": "anti-social-behaviour",
    "location_type": "Force",
    "location": {
      "latitude": "51.897667",
      "street": {
        "id": 708113,
        "name": "On or near Monks Croft"
      },
      "longitude": "-2.117162"
    },
    "context": "",
    "outcome_status": null,
    "persistent_id": "",
    "id": 91341721,
    "location_subtype": "",
    "month": "2021-03"
  },
  {
    "category": "anti-social-behaviour",
    "location_type": "Force",
    "location": {
      "latitude": "51.899350",
      "street": {
        "id": 707942,
        "name": "On or near St George's Road"
      },
      "longitude": "-2.083579"
    },
    "context": "",
    "outcome_status": null,
    "persistent_id": "",
    "id": 91341694,
    "location_subtype": "",
    "month": "2021-03"
  },
  {
    "category": "anti-social-behaviour",
    "location_type": "Force",
    "location": {
      "latitude": "51.906649",
      "street": {
        "id": 708427,
        "name": "On or near Arle Road"
      },
      "longitude": "-2.097533"
    },
    "context": "",
    "outcome_status": null,
    "persistent_id": "",
    "id": 91341238,
    "location_subtype": "",
    "month": "2021-03"
  },
  {
    "category": "anti-social-behaviour",
    "location_type": "Force",
    "location": {
      "latitude": "51.907367",
      "street": {
        "id": 708356,
        "name": "On or near Falkland Place"
      },
      "longitude": "-2.118583"
    },
    "context": "",
    "outcome_status": null,
    "persistent_id": "",
    "id": 91341232,
    "location_subtype": "",
    "month": "2021-03"
  },
  {
    "category": "anti-social-behaviour",
    "location_type": "Force",
    "location": {
      "latitude": "51.906761",
      "street": {
        "id": 708441,
        "name": "On or near Quebec Drive"
      },
      "longitude": "-2.112650"
    },
    "context": "",
    "outcome_status": null,
    "persistent_id": "",
    "id": 91341213,
    "location_subtype": "",
    "month": "2021-03"
  },
  {
    "category": "anti-social-behaviour",
    "location_type": "Force",
    "location": {
      "latitude": "51.901805",
      "street": {
        "id": 707902,
        "name": "On or near Jessop Avenue"
      },
      "longitude": "-2.083409"
    },
    "context": "",
    "outcome_status": null,
    "persistent_id": "",
    "id": 91341196,
    "location_subtype": "",
    "month": "2021-03"
  },
  {
    "category": "anti-social-behaviour",
    "location_type": "Force",
    "location": {
      "latitude": "51.908351",
      "street": {
        "id": 708494,
        "name": "On or near Ashlands Road"
      },
      "longitude": "-2.114849"
    },
    "context": "",
    "outcome_status": null,
    "persistent_id": "",
    "id": 91341177,
    "location_subtype": "",
    "month": "2021-03"
  },
  {
    "category": "anti-social-behaviour",
    "location_type": "Force",
    "location": {
      "latitude": "51.903595",
      "street": {
        "id": 708431,
        "name": "On or near Anapa Mews"
      },
      "longitude": "-2.114270"
    },
    "context": "",
    "outcome_status": null,
    "persistent_id": "",
    "id": 91341171,
    "location_subtype": "",
    "month": "2021-03"
  },
  {
    "category": "anti-social-behaviour",
    "location_type": "Force",
    "location": {
      "latitude": "51.907367",
      "street": {
        "id": 708356,
        "name": "On or near Falkland Place"
      },
      "longitude": "-2.118583"
    },
    "context": "",
    "outcome_status": null,
    "persistent_id": "",
    "id": 91341168,
    "location_subtype": "",
    "month": "2021-03"
  },
  {
    "category": "anti-social-behaviour",
    "location_type": "Force",
    "location": {
      "latitude": "51.899151",
      "street": {
        "id": 708162,
        "name": "On or near Stow Court"
      },
      "longitude": "-2.097473"
    },
    "context": "",
    "outcome_status": null,
    "persistent_id": "",
    "id": 91341138,
    "location_subtype": "",
    "month": "2021-03"
  },
  {
    "category": "anti-social-behaviour",
    "location_type": "Force",
    "location": {
      "latitude": "51.898352",
      "street": {
        "id": 708093,
        "name": "On or near Wordsworth Avenue"
      },
      "longitude": "-2.115638"
    },
    "context": "",
    "outcome_status": null,
    "persistent_id": "",
    "id": 91341136,
    "location_subtype": "",
    "month": "2021-03"
  },
  {
    "category": "anti-social-behaviour",
    "location_type": "Force",
    "location": {
      "latitude": "51.898352",
      "street": {
        "id": 708093,
        "name": "On or near Wordsworth Avenue"
      },
      "longitude": "-2.115638"
    },
    "context": "",
    "outcome_status": null,
    "persistent_id": "",
    "id": 91341128,
    "location_subtype": "",
    "month": "2021-03"
  },
  {
    "category": "anti-social-behaviour",
    "location_type": "Force",
    "location": {
      "latitude": "51.916034",
      "street": {
        "id": 708402,
        "name": "On or near Newland View"
      },
      "longitude": "-2.109126"
    },
    "context": "",
    "outcome_status": null,
    "persistent_id": "",
    "id": 91341124,
    "location_subtype": "",
    "month": "2021-03"
  },
  {
    "category": "anti-social-behaviour",
    "location_type": "Force",
    "location": {
      "latitude": "51.901634",
      "street": {
        "id": 708074,
        "name": "On or near Hamlet Close"
      },
      "longitude": "-2.115414"
    },
    "context": "",
    "outcome_status": null,
    "persistent_id": "",
    "id": 91341117,
    "location_subtype": "",
    "month": "2021-03"
  },
  {
    "category": "anti-social-behaviour",
    "location_type": "Force",
    "location": {
      "latitude": "51.902305",
      "street": {
        "id": 708058,
        "name": "On or near Parkbury Close"
      },
      "longitude": "-2.099471"
    },
    "context": "",
    "outcome_status": null,
    "persistent_id": "",
    "id": 91341114,
    "location_subtype": "",
    "month": "2021-03"
  },
  {
    "category": "anti-social-behaviour",
    "location_type": "Force",
    "location": {
      "latitude": "51.907796",
      "street": {
        "id": 708460,
        "name": "On or near Montreal Drive"
      },
      "longitude": "-2.111330"
    },
    "context": "",
    "outcome_status": null,
    "persistent_id": "",
    "id": 91341096,
    "location_subtype": "",
    "month": "2021-03"
  },
  {
    "category": "anti-social-behaviour",
    "location_type": "Force",
    "location": {
      "latitude": "51.910346",
      "street": {
        "id": 708593,
        "name": "On or near Marsh Drive"
      },
      "longitude": "-2.083629"
    },
    "context": "",
    "outcome_status": null,
    "persistent_id": "",
    "id": 91339978,
    "location_subtype": "",
    "month": "2021-03"
  },
  {
    "category": "anti-social-behaviour",
    "location_type": "Force",
    "location": {
      "latitude": "51.906710",
      "street": {
        "id": 708355,
        "name": "On or near Graham Place"
      },
      "longitude": "-2.119482"
    },
    "context": "",
    "outcome_status": null,
    "persistent_id": "",
    "id": 91341592,
    "location_subtype": "",
    "month": "2021-03"
  },
  {
    "category": "anti-social-behaviour",
    "location_type": "Force",
    "location": {
      "latitude": "51.890684",
      "street": {
        "id": 708158,
        "name": "On or near Alma Road"
      },
      "longitude": "-2.104618"
    },
    "context": "",
    "outcome_status": null,
    "persistent_id": "",
    "id": 91341585,
    "location_subtype": "",
    "month": "2021-03"
  },
  {
    "category": "anti-social-behaviour",
    "location_type": "Force",
    "location": {
      "latitude": "51.903260",
      "street": {
        "id": 708087,
        "name": "On or near Sports/recreation Area"
      },
      "longitude": "-2.106784"
    },
    "context": "",
    "outcome_status": null,
    "persistent_id": "",
    "id": 91341571,
    "location_subtype": "",
    "month": "2021-03"
  },
  {
    "category": "anti-social-behaviour",
    "location_type": "Force",
    "location": {
      "latitude": "51.909860",
      "street": {
        "id": 708591,
        "name": "On or near Marsh Lane"
      },
      "longitude": "-2.084253"
    },
    "context": "",
    "outcome_status": null,
    "persistent_id": "",
    "id": 91342179,
    "location_subtype": "",
    "month": "2021-03"
  },
  {
    "category": "anti-social-behaviour",
    "location_type": "Force",
    "location": {
      "latitude": "51.904050",
      "street": {
        "id": 708624,
        "name": "On or near Brookbank Close"
      },
      "longitude": "-2.086946"
    },
    "context": "",
    "outcome_status": null,
    "persistent_id": "",
    "id": 91342137,
    "location_subtype": "",
    "month": "2021-03"
  },
  {
    "category": "anti-social-behaviour",
    "location_type": "Force",
    "location": {
      "latitude": "51.909738",
      "street": {
        "id": 708497,
        "name": "On or near Sports/recreation Area"
      },
      "longitude": "-2.111393"
    },
    "context": "",
    "outcome_status": null,
    "persistent_id": "",
    "id": 91342146,
    "location_subtype": "",
    "month": "2021-03"
  },
  {
    "category": "anti-social-behaviour",
    "location_type": "Force",
    "location": {
      "latitude": "51.906587",
      "street": {
        "id": 708620,
        "name": "On or near Charles Street"
      },
      "longitude": "-2.085293"
    },
    "context": "",
    "outcome_status": null,
    "persistent_id": "",
    "id": 91341540,
    "location_subtype": "",
    "month": "2021-03"
  },
  {
    "category": "anti-social-behaviour",
    "location_type": "Force",
    "location": {
      "latitude": "51.902534",
      "street": {
        "id": 708077,
        "name": "On or near Evington Road"
      },
      "longitude": "-2.114776"
    },
    "context": "",
    "outcome_status": null,
    "persistent_id": "",
    "id": 91341524,
    "location_subtype": "",
    "month": "2021-03"
  },
  {
    "category": "anti-social-behaviour",
    "location_type": "Force",
    "location": {
      "latitude": "51.904081",
      "street": {
        "id": 708604,
        "name": "On or near High Street"
      },
      "longitude": "-2.081553"
    },
    "context": "",
    "outcome_status": null,
    "persistent_id": "",
    "id": 91341502,
    "location_subtype": "",
    "month": "2021-03"
  },
  {
    "category": "anti-social-behaviour",
    "location_type": "Force",
    "location": {
      "latitude": "51.905536",
      "street": {
        "id": 708606,
        "name": "On or near Granville Street"
      },
      "longitude": "-2.082966"
    },
    "context": "",
    "outcome_status": null,
    "persistent_id": "",
    "id": 91341364,
    "location_subtype": "",
    "month": "2021-03"
  },
  {
    "category": "anti-social-behaviour",
    "location_type": "Force",
    "location": {
      "latitude": "51.909738",
      "street": {
        "id": 708497,
        "name": "On or near Sports/recreation Area"
      },
      "longitude": "-2.111393"
    },
    "context": "",
    "outcome_status": null,
    "persistent_id": "",
    "id": 91341347,
    "location_subtype": "",
    "month": "2021-03"
  },
  {
    "category": "anti-social-behaviour",
    "location_type": "Force",
    "location": {
      "latitude": "51.905518",
      "street": {
        "id": 708499,
        "name": "On or near Sports/recreation Area"
      },
      "longitude": "-2.105699"
    },
    "context": "",
    "outcome_status": null,
    "persistent_id": "",
    "id": 91341327,
    "location_subtype": "",
    "month": "2021-03"
  },
  {
    "category": "anti-social-behaviour",
    "location_type": "Force",
    "location": {
      "latitude": "51.903128",
      "street": {
        "id": 708068,
        "name": "On or near Sochi Mews"
      },
      "longitude": "-2.113935"
    },
    "context": "",
    "outcome_status": null,
    "persistent_id": "",
    "id": 91341321,
    "location_subtype": "",
    "month": "2021-03"
  },
  {
    "category": "anti-social-behaviour",
    "location_type": "Force",
    "location": {
      "latitude": "51.896913",
      "street": {
        "id": 700956,
        "name": "On or near Griffiths Avenue"
      },
      "longitude": "-2.106173"
    },
    "context": "",
    "outcome_status": null,
    "persistent_id": "",
    "id": 91341312,
    "location_subtype": "",
    "month": "2021-03"
  },
  {
    "category": "anti-social-behaviour",
    "location_type": "Force",
    "location": {
      "latitude": "51.901599",
      "street": {
        "id": 707897,
        "name": "On or near Pates Avenue"
      },
      "longitude": "-2.094223"
    },
    "context": "",
    "outcome_status": null,
    "persistent_id": "",
    "id": 91341302,
    "location_subtype": "",
    "month": "2021-03"
  },
  {
    "category": "anti-social-behaviour",
    "location_type": "Force",
    "location": {
      "latitude": "51.915524",
      "street": {
        "id": 708514,
        "name": "On or near Kingsditch Lane"
      },
      "longitude": "-2.096636"
    },
    "context": "",
    "outcome_status": null,
    "persistent_id": "",
    "id": 91341274,
    "location_subtype": "",
    "month": "2021-03"
  },
  {
    "category": "anti-social-behaviour",
    "location_type": "Force",
    "location": {
      "latitude": "51.899967",
      "street": {
        "id": 708171,
        "name": "On or near Bus/coach Station"
      },
      "longitude": "-2.099320"
    },
    "context": "",
    "outcome_status": null,
    "persistent_id": "",
    "id": 91341259,
    "location_subtype": "",
    "month": "2021-03"
  },
  {
    "category": "anti-social-behaviour",
    "location_type": "Force",
    "location": {
      "latitude": "51.903813",
      "street": {
        "id": 708481,
        "name": "On or near Clevedon Square"
      },
      "longitude": "-2.101698"
    },
    "context": "",
    "outcome_status": null,
    "persistent_id": "",
    "id": 91341254,
    "location_subtype": "",
    "month": "2021-03"
  },
  {
    "category": "anti-social-behaviour",
    "location_type": "Force",
    "location": {
      "latitude": "51.893930",
      "street": {
        "id": 708111,
        "name": "On or near Notgrove Close"
      },
      "longitude": "-2.114333"
    },
    "context": "",
    "outcome_status": null,
    "persistent_id": "",
    "id": 91341248,
    "location_subtype": "",
    "month": "2021-03"
  },
  {
    "category": "anti-social-behaviour",
    "location_type": "Force",
    "location": {
      "latitude": "51.897667",
      "street": {
        "id": 708113,
        "name": "On or near Monks Croft"
      },
      "longitude": "-2.117162"
    },
    "context": "",
    "outcome_status": null,
    "persistent_id": "",
    "id": 91341876,
    "location_subtype": "",
    "month": "2021-03"
  },
  {
    "category": "anti-social-behaviour",
    "location_type": "Force",
    "location": {
      "latitude": "51.909622",
      "street": {
        "id": 708631,
        "name": "On or near Addis Road"
      },
      "longitude": "-2.089559"
    },
    "context": "",
    "outcome_status": null,
    "persistent_id": "",
    "id": 91341875,
    "location_subtype": "",
    "month": "2021-03"
  },
  {
    "category": "anti-social-behaviour",
    "location_type": "Force",
    "location": {
      "latitude": "51.901985",
      "street": {
        "id": 708065,
        "name": "On or near Surrey Avenue"
      },
      "longitude": "-2.105531"
    },
    "context": "",
    "outcome_status": null,
    "persistent_id": "",
    "id": 91341864,
    "location_subtype": "",
    "month": "2021-03"
  },
  {
    "category": "anti-social-behaviour",
    "location_type": "Force",
    "location": {
      "latitude": "51.903380",
      "street": {
        "id": 708177,
        "name": "On or near Terry Ruck Close"
      },
      "longitude": "-2.122337"
    },
    "context": "",
    "outcome_status": null,
    "persistent_id": "",
    "id": 91341860,
    "location_subtype": "",
    "month": "2021-03"
  },
  {
    "category": "anti-social-behaviour",
    "location_type": "Force",
    "location": {
      "latitude": "51.909747",
      "street": {
        "id": 708613,
        "name": "On or near Elm Close"
      },
      "longitude": "-2.090954"
    },
    "context": "",
    "outcome_status": null,
    "persistent_id": "",
    "id": 91341858,
    "location_subtype": "",
    "month": "2021-03"
  },
  {
    "category": "anti-social-behaviour",
    "location_type": "Force",
    "location": {
      "latitude": "51.904091",
      "street": {
        "id": 708576,
        "name": "On or near St Paul's Street South"
      },
      "longitude": "-2.079184"
    },
    "context": "",
    "outcome_status": null,
    "persistent_id": "",
    "id": 91341853,
    "location_subtype": "",
    "month": "2021-03"
  },
  {
    "category": "anti-social-behaviour",
    "location_type": "Force",
    "location": {
      "latitude": "51.911194",
      "street": {
        "id": 708465,
        "name": "On or near Lipson Road"
      },
      "longitude": "-2.112240"
    },
    "context": "",
    "outcome_status": null,
    "persistent_id": "",
    "id": 91341852,
    "location_subtype": "",
    "month": "2021-03"
  },
  {
    "category": "anti-social-behaviour",
    "location_type": "Force",
    "location": {
      "latitude": "51.899600",
      "street": {
        "id": 707961,
        "name": "On or near Overton Park Road"
      },
      "longitude": "-2.086050"
    },
    "context": "",
    "outcome_status": null,
    "persistent_id": "",
    "id": 91341843,
    "location_subtype": "",
    "month": "2021-03"
  },
  {
    "category": "anti-social-behaviour",
    "location_type": "Force",
    "location": {
      "latitude": "51.898925",
      "street": {
        "id": 708226,
        "name": "On or near Hubble Road"
      },
      "longitude": "-2.118226"
    },
    "context": "",
    "outcome_status": null,
    "persistent_id": "",
    "id": 91339985,
    "location_subtype": "",
    "month": "2021-03"
  },
  {
    "category": "anti-social-behaviour",
    "location_type": "Force",
    "location": {
      "latitude": "51.903595",
      "street": {
        "id": 708431,
        "name": "On or near Anapa Mews"
      },
      "longitude": "-2.114270"
    },
    "context": "",
    "outcome_status": null,
    "persistent_id": "",
    "id": 91339967,
    "location_subtype": "",
    "month": "2021-03"
  },
  {
    "category": "anti-social-behaviour",
    "location_type": "Force",
    "location": {
      "latitude": "51.903380",
      "street": {
        "id": 708177,
        "name": "On or near Terry Ruck Close"
      },
      "longitude": "-2.122337"
    },
    "context": "",
    "outcome_status": null,
    "persistent_id": "",
    "id": 91340004,
    "location_subtype": "",
    "month": "2021-03"
  },
  {
    "category": "anti-social-behaviour",
    "location_type": "Force",
    "location": {
      "latitude": "51.895902",
      "street": {
        "id": 708220,
        "name": "On or near Stanway Road"
      },
      "longitude": "-2.120035"
    },
    "context": "",
    "outcome_status": null,
    "persistent_id": "",
    "id": 91340007,
    "location_subtype": "",
    "month": "2021-03"
  },
  {
    "category": "anti-social-behaviour",
    "location_type": "Force",
    "location": {
      "latitude": "51.900301",
      "street": {
        "id": 708164,
        "name": "On or near Shopping Area"
      },
      "longitude": "-2.097824"
    },
    "context": "",
    "outcome_status": null,
    "persistent_id": "",
    "id": 91340022,
    "location_subtype": "",
    "month": "2021-03"
  },
  {
    "category": "anti-social-behaviour",
    "location_type": "Force",
    "location": {
      "latitude": "51.903096",
      "street": {
        "id": 708173,
        "name": "On or near Seacome Road"
      },
      "longitude": "-2.118717"
    },
    "context": "",
    "outcome_status": null,
    "persistent_id": "",
    "id": 91340032,
    "location_subtype": "",
    "month": "2021-03"
  },
  {
    "category": "anti-social-behaviour",
    "location_type": "Force",
    "location": {
      "latitude": "51.908711",
      "street": {
        "id": 708588,
        "name": "On or near Neptune Business Centre"
      },
      "longitude": "-2.094078"
    },
    "context": "",
    "outcome_status": null,
    "persistent_id": "",
    "id": 91340038,
    "location_subtype": "",
    "month": "2021-03"
  },
  {
    "category": "anti-social-behaviour",
    "location_type": "Force",
    "location": {
      "latitude": "51.906710",
      "street": {
        "id": 708355,
        "name": "On or near Graham Place"
      },
      "longitude": "-2.119482"
    },
    "context": "",
    "outcome_status": null,
    "persistent_id": "",
    "id": 91340046,
    "location_subtype": "",
    "month": "2021-03"
  },
  {
    "category": "anti-social-behaviour",
    "location_type": "Force",
    "location": {
      "latitude": "51.901634",
      "street": {
        "id": 708074,
        "name": "On or near Hamlet Close"
      },
      "longitude": "-2.115414"
    },
    "context": "",
    "outcome_status": null,
    "persistent_id": "",
    "id": 91340099,
    "location_subtype": "",
    "month": "2021-03"
  },
  {
    "category": "anti-social-behaviour",
    "location_type": "Force",
    "location": {
      "latitude": "51.910419",
      "street": {
        "id": 708564,
        "name": "On or near Tewkesbury Road"
      },
      "longitude": "-2.093630"
    },
    "context": "",
    "outcome_status": null,
    "persistent_id": "",
    "id": 91340125,
    "location_subtype": "",
    "month": "2021-03"
  },
  {
    "category": "anti-social-behaviour",
    "location_type": "Force",
    "location": {
      "latitude": "51.904793",
      "street": {
        "id": 708567,
        "name": "On or near Swindon Road"
      },
      "longitude": "-2.078996"
    },
    "context": "",
    "outcome_status": null,
    "persistent_id": "",
    "id": 91340129,
    "location_subtype": "",
    "month": "2021-03"
  },
  {
    "category": "anti-social-behaviour",
    "location_type": "Force",
    "location": {
      "latitude": "51.907849",
      "street": {
        "id": 708467,
        "name": "On or near Lechmere Road"
      },
      "longitude": "-2.113118"
    },
    "context": "",
    "outcome_status": null,
    "persistent_id": "",
    "id": 91339846,
    "location_subtype": "",
    "month": "2021-03"
  },
  {
    "category": "anti-social-behaviour",
    "location_type": "Force",
    "location": {
      "latitude": "51.904871",
      "street": {
        "id": 708603,
        "name": "On or near High Street"
      },
      "longitude": "-2.083444"
    },
    "context": "",
    "outcome_status": null,
    "persistent_id": "",
    "id": 91340151,
    "location_subtype": "",
    "month": "2021-03"
  },
  {
    "category": "anti-social-behaviour",
    "location_type": "Force",
    "location": {
      "latitude": "51.909528",
      "street": {
        "id": 708446,
        "name": "On or near Pennsylvania Avenue"
      },
      "longitude": "-2.105578"
    },
    "context": "",
    "outcome_status": null,
    "persistent_id": "",
    "id": 91340211,
    "location_subtype": "",
    "month": "2021-03"
  },
  {
    "category": "anti-social-behaviour",
    "location_type": "Force",
    "location": {
      "latitude": "51.907612",
      "street": {
        "id": 708634,
        "name": "On or near Sports/recreation Area"
      },
      "longitude": "-2.095791"
    },
    "context": "",
    "outcome_status": null,
    "persistent_id": "",
    "id": 91340236,
    "location_subtype": "",
    "month": "2021-03"
  },
  {
    "category": "anti-social-behaviour",
    "location_type": "Force",
    "location": {
      "latitude": "51.909793",
      "street": {
        "id": 708558,
        "name": "On or near Waterloo Street"
      },
      "longitude": "-2.089908"
    },
    "context": "",
    "outcome_status": null,
    "persistent_id": "",
    "id": 91340244,
    "location_subtype": "",
    "month": "2021-03"
  },
  {
    "category": "anti-social-behaviour",
    "location_type": "Force",
    "location": {
      "latitude": "51.902274",
      "street": {
        "id": 708178,
        "name": "On or near Swallowtail Close"
      },
      "longitude": "-2.122392"
    },
    "context": "",
    "outcome_status": null,
    "persistent_id": "",
    "id": 91340268,
    "location_subtype": "",
    "month": "2021-03"
  },
  {
    "category": "anti-social-behaviour",
    "location_type": "Force",
    "location": {
      "latitude": "51.896440",
      "street": {
        "id": 708136,
        "name": "On or near Gloucester Road"
      },
      "longitude": "-2.102205"
    },
    "context": "",
    "outcome_status": null,
    "persistent_id": "",
    "id": 91339955,
    "location_subtype": "",
    "month": "2021-03"
  },
  {
    "category": "anti-social-behaviour",
    "location_type": "Force",
    "location": {
      "latitude": "51.912412",
      "street": {
        "id": 708492,
        "name": "On or near Barlow Road"
      },
      "longitude": "-2.108201"
    },
    "context": "",
    "outcome_status": null,
    "persistent_id": "",
    "id": 91340645,
    "location_subtype": "",
    "month": "2021-03"
  },
  {
    "category": "anti-social-behaviour",
    "location_type": "Force",
    "location": {
      "latitude": "51.910204",
      "street": {
        "id": 708473,
        "name": "On or near Grevil Road"
      },
      "longitude": "-2.103195"
    },
    "context": "",
    "outcome_status": null,
    "persistent_id": "",
    "id": 91340649,
    "location_subtype": "",
    "month": "2021-03"
  },
  {
    "category": "anti-social-behaviour",
    "location_type": "Force",
    "location": {
      "latitude": "51.912062",
      "street": {
        "id": 708434,
        "name": "On or near Village Road"
      },
      "longitude": "-2.107503"
    },
    "context": "",
    "outcome_status": null,
    "persistent_id": "",
    "id": 91340663,
    "location_subtype": "",
    "month": "2021-03"
  },
  {
    "category": "anti-social-behaviour",
    "location_type": "Force",
    "location": {
      "latitude": "51.909528",
      "street": {
        "id": 708446,
        "name": "On or near Pennsylvania Avenue"
      },
      "longitude": "-2.105578"
    },
    "context": "",
    "outcome_status": null,
    "persistent_id": "",
    "id": 91340673,
    "location_subtype": "",
    "month": "2021-03"
  },
  {
    "category": "anti-social-behaviour",
    "location_type": "Force",
    "location": {
      "latitude": "51.896883",
      "street": {
        "id": 708166,
        "name": "On or near Parking Area"
      },
      "longitude": "-2.099721"
    },
    "context": "",
    "outcome_status": null,
    "persistent_id": "",
    "id": 91341835,
    "location_subtype": "",
    "month": "2021-03"
  },
  {
    "category": "anti-social-behaviour",
    "location_type": "Force",
    "location": {
      "latitude": "51.905451",
      "street": {
        "id": 708599,
        "name": "On or near Lower Mill Street"
      },
      "longitude": "-2.089027"
    },
    "context": "",
    "outcome_status": null,
    "persistent_id": "",
    "id": 91340287,
    "location_subtype": "",
    "month": "2021-03"
  },
  {
    "category": "anti-social-behaviour",
    "location_type": "Force",
    "location": {
      "latitude": "51.906917",
      "street": {
        "id": 708502,
        "name": "On or near Hawthorn Road"
      },
      "longitude": "-2.110107"
    },
    "context": "",
    "outcome_status": null,
    "persistent_id": "",
    "id": 91340288,
    "location_subtype": "",
    "month": "2021-03"
  },
  {
    "category": "anti-social-behaviour",
    "location_type": "Force",
    "location": {
      "latitude": "51.896673",
      "street": {
        "id": 707925,
        "name": "On or near Wendover Gardens"
      },
      "longitude": "-2.092585"
    },
    "context": "",
    "outcome_status": null,
    "persistent_id": "",
    "id": 91340298,
    "location_subtype": "",
    "month": "2021-03"
  },
  {
    "category": "anti-social-behaviour",
    "location_type": "Force",
    "location": {
      "latitude": "51.902274",
      "street": {
        "id": 708178,
        "name": "On or near Swallowtail Close"
      },
      "longitude": "-2.122392"
    },
    "context": "",
    "outcome_status": null,
    "persistent_id": "",
    "id": 91339953,
    "location_subtype": "",
    "month": "2021-03"
  },
  {
    "category": "anti-social-behaviour",
    "location_type": "Force",
    "location": {
      "latitude": "51.906710",
      "street": {
        "id": 708355,
        "name": "On or near Graham Place"
      },
      "longitude": "-2.119482"
    },
    "context": "",
    "outcome_status": null,
    "persistent_id": "",
    "id": 91340642,
    "location_subtype": "",
    "month": "2021-03"
  },
  {
    "category": "anti-social-behaviour",
    "location_type": "Force",
    "location": {
      "latitude": "51.911490",
      "street": {
        "id": 708433,
        "name": "On or near Welch Road"
      },
      "longitude": "-2.113142"
    },
    "context": "",
    "outcome_status": null,
    "persistent_id": "",
    "id": 91340314,
    "location_subtype": "",
    "month": "2021-03"
  },
  {
    "category": "anti-social-behaviour",
    "location_type": "Force",
    "location": {
      "latitude": "51.901613",
      "street": {
        "id": 707903,
        "name": "On or near Honeybourne Way"
      },
      "longitude": "-2.086999"
    },
    "context": "",
    "outcome_status": null,
    "persistent_id": "",
    "id": 91339844,
    "location_subtype": "",
    "month": "2021-03"
  },
  {
    "category": "anti-social-behaviour",
    "location_type": "Force",
    "location": {
      "latitude": "51.902534",
      "street": {
        "id": 708077,
        "name": "On or near Evington Road"
      },
      "longitude": "-2.114776"
    },
    "context": "",
    "outcome_status": null,
    "persistent_id": "",
    "id": 91340321,
    "location_subtype": "",
    "month": "2021-03"
  },
  {
    "category": "anti-social-behaviour",
    "location_type": "Force",
    "location": {
      "latitude": "51.901634",
      "street": {
        "id": 708074,
        "name": "On or near Hamlet Close"
      },
      "longitude": "-2.115414"
    },
    "context": "",
    "outcome_status": null,
    "persistent_id": "",
    "id": 91339821,
    "location_subtype": "",
    "month": "2021-03"
  },
  {
    "category": "anti-social-behaviour",
    "location_type": "Force",
    "location": {
      "latitude": "51.901634",
      "street": {
        "id": 708074,
        "name": "On or near Hamlet Close"
      },
      "longitude": "-2.115414"
    },
    "context": "",
    "outcome_status": null,
    "persistent_id": "",
    "id": 91339820,
    "location_subtype": "",
    "month": "2021-03"
  },
  {
    "category": "anti-social-behaviour",
    "location_type": "Force",
    "location": {
      "latitude": "51.905647",
      "street": {
        "id": 708530,
        "name": "On or near St Paul's Street North"
      },
      "longitude": "-2.078227"
    },
    "context": "",
    "outcome_status": null,
    "persistent_id": "",
    "id": 91340331,
    "location_subtype": "",
    "month": "2021-03"
  },
  {
    "category": "anti-social-behaviour",
    "location_type": "Force",
    "location": {
      "latitude": "51.906917",
      "street": {
        "id": 708502,
        "name": "On or near Hawthorn Road"
      },
      "longitude": "-2.110107"
    },
    "context": "",
    "outcome_status": null,
    "persistent_id": "",
    "id": 91340338,
    "location_subtype": "",
    "month": "2021-03"
  },
  {
    "category": "anti-social-behaviour",
    "location_type": "Force",
    "location": {
      "latitude": "51.902634",
      "street": {
        "id": 708079,
        "name": "On or near Edinburgh Place"
      },
      "longitude": "-2.113062"
    },
    "context": "",
    "outcome_status": null,
    "persistent_id": "",
    "id": 91339815,
    "location_subtype": "",
    "month": "2021-03"
  },
  {
    "category": "anti-social-behaviour",
    "location_type": "Force",
    "location": {
      "latitude": "51.900328",
      "street": {
        "id": 708108,
        "name": "On or near Princess Elizabeth Way"
      },
      "longitude": "-2.117605"
    },
    "context": "",
    "outcome_status": null,
    "persistent_id": "",
    "id": 91339814,
    "location_subtype": "",
    "month": "2021-03"
  },
  {
    "category": "anti-social-behaviour",
    "location_type": "Force",
    "location": {
      "latitude": "51.914869",
      "street": {
        "id": 708414,
        "name": "On or near Barnett Close"
      },
      "longitude": "-2.114488"
    },
    "context": "",
    "outcome_status": null,
    "persistent_id": "",
    "id": 91340353,
    "location_subtype": "",
    "month": "2021-03"
  },
  {
    "category": "anti-social-behaviour",
    "location_type": "Force",
    "location": {
      "latitude": "51.902534",
      "street": {
        "id": 708077,
        "name": "On or near Evington Road"
      },
      "longitude": "-2.114776"
    },
    "context": "",
    "outcome_status": null,
    "persistent_id": "",
    "id": 91340355,
    "location_subtype": "",
    "month": "2021-03"
  },
  {
    "category": "anti-social-behaviour",
    "location_type": "Force",
    "location": {
      "latitude": "51.902428",
      "street": {
        "id": 707912,
        "name": "On or near Ambrose Street"
      },
      "longitude": "-2.079544"
    },
    "context": "",
    "outcome_status": null,
    "persistent_id": "",
    "id": 91340369,
    "location_subtype": "",
    "month": "2021-03"
  },
  {
    "category": "anti-social-behaviour",
    "location_type": "Force",
    "location": {
      "latitude": "51.903968",
      "street": {
        "id": 708348,
        "name": "On or near Marsland Road"
      },
      "longitude": "-2.119068"
    },
    "context": "",
    "outcome_status": null,
    "persistent_id": "",
    "id": 91341336,
    "location_subtype": "",
    "month": "2021-03"
  },
  {
    "category": "anti-social-behaviour",
    "location_type": "Force",
    "location": {
      "latitude": "51.905735",
      "street": {
        "id": 708621,
        "name": "On or near Central Way"
      },
      "longitude": "-2.093504"
    },
    "context": "",
    "outcome_status": null,
    "persistent_id": "",
    "id": 91341639,
    "location_subtype": "",
    "month": "2021-03"
  },
  {
    "category": "anti-social-behaviour",
    "location_type": "Force",
    "location": {
      "latitude": "51.908771",
      "street": {
        "id": 708450,
        "name": "On or near Orchard Way"
      },
      "longitude": "-2.107917"
    },
    "context": "",
    "outcome_status": null,
    "persistent_id": "",
    "id": 91340391,
    "location_subtype": "",
    "month": "2021-03"
  },
  {
    "category": "anti-social-behaviour",
    "location_type": "Force",
    "location": {
      "latitude": "51.897667",
      "street": {
        "id": 708113,
        "name": "On or near Monks Croft"
      },
      "longitude": "-2.117162"
    },
    "context": "",
    "outcome_status": null,
    "persistent_id": "",
    "id": 91341644,
    "location_subtype": "",
    "month": "2021-03"
  },
  {
    "category": "anti-social-behaviour",
    "location_type": "Force",
    "location": {
      "latitude": "51.896883",
      "street": {
        "id": 708166,
        "name": "On or near Parking Area"
      },
      "longitude": "-2.099721"
    },
    "context": "",
    "outcome_status": null,
    "persistent_id": "",
    "id": 91340394,
    "location_subtype": "",
    "month": "2021-03"
  },
  {
    "category": "anti-social-behaviour",
    "location_type": "Force",
    "location": {
      "latitude": "51.904869",
      "street": {
        "id": 708626,
        "name": "On or near Bloomsbury Street"
      },
      "longitude": "-2.085959"
    },
    "context": "",
    "outcome_status": null,
    "persistent_id": "",
    "id": 91341676,
    "location_subtype": "",
    "month": "2021-03"
  },
  {
    "category": "anti-social-behaviour",
    "location_type": "Force",
    "location": {
      "latitude": "51.893393",
      "street": {
        "id": 708011,
        "name": "On or near Petrol Station"
      },
      "longitude": "-2.090267"
    },
    "context": "",
    "outcome_status": null,
    "persistent_id": "",
    "id": 91340429,
    "location_subtype": "",
    "month": "2021-03"
  },
  {
    "category": "anti-social-behaviour",
    "location_type": "Force",
    "location": {
      "latitude": "51.897667",
      "street": {
        "id": 708113,
        "name": "On or near Monks Croft"
      },
      "longitude": "-2.117162"
    },
    "context": "",
    "outcome_status": null,
    "persistent_id": "",
    "id": 91342081,
    "location_subtype": "",
    "month": "2021-03"
  },
  {
    "category": "anti-social-behaviour",
    "location_type": "Force",
    "location": {
      "latitude": "51.910623",
      "street": {
        "id": 708425,
        "name": "On or near Moors Avenue"
      },
      "longitude": "-2.096931"
    },
    "context": "",
    "outcome_status": null,
    "persistent_id": "",
    "id": 91340434,
    "location_subtype": "",
    "month": "2021-03"
  },
  {
    "category": "anti-social-behaviour",
    "location_type": "Force",
    "location": {
      "latitude": "51.912367",
      "street": {
        "id": 708426,
        "name": "On or near Brook Road"
      },
      "longitude": "-2.097153"
    },
    "context": "",
    "outcome_status": null,
    "persistent_id": "",
    "id": 91340492,
    "location_subtype": "",
    "month": "2021-03"
  },
  {
    "category": "anti-social-behaviour",
    "location_type": "Force",
    "location": {
      "latitude": "51.902001",
      "street": {
        "id": 708090,
        "name": "On or near Hospital"
      },
      "longitude": "-2.116984"
    },
    "context": "",
    "outcome_status": null,
    "persistent_id": "",
    "id": 91340498,
    "location_subtype": "",
    "month": "2021-03"
  },
  {
    "category": "anti-social-behaviour",
    "location_type": "Force",
    "location": {
      "latitude": "51.910505",
      "street": {
        "id": 708611,
        "name": "On or near Elmfield Road"
      },
      "longitude": "-2.087103"
    },
    "context": "",
    "outcome_status": null,
    "persistent_id": "",
    "id": 91340912,
    "location_subtype": "",
    "month": "2021-03"
  },
  {
    "category": "anti-social-behaviour",
    "location_type": "Force",
    "location": {
      "latitude": "51.894799",
      "street": {
        "id": 707976,
        "name": "On or near Lansdown Walk"
      },
      "longitude": "-2.086652"
    },
    "context": "",
    "outcome_status": null,
    "persistent_id": "",
    "id": 91340504,
    "location_subtype": "",
    "month": "2021-03"
  },
  {
    "category": "anti-social-behaviour",
    "location_type": "Force",
    "location": {
      "latitude": "51.905510",
      "street": {
        "id": 708437,
        "name": "On or near Stone Crescent"
      },
      "longitude": "-2.104391"
    },
    "context": "",
    "outcome_status": null,
    "persistent_id": "",
    "id": 91340917,
    "location_subtype": "",
    "month": "2021-03"
  },
  {
    "category": "anti-social-behaviour",
    "location_type": "Force",
    "location": {
      "latitude": "51.896913",
      "street": {
        "id": 700956,
        "name": "On or near Griffiths Avenue"
      },
      "longitude": "-2.106173"
    },
    "context": "",
    "outcome_status": null,
    "persistent_id": "",
    "id": 91340738,
    "location_subtype": "",
    "month": "2021-03"
  },
  {
    "category": "anti-social-behaviour",
    "location_type": "Force",
    "location": {
      "latitude": "51.903723",
      "street": {
        "id": 708527,
        "name": "On or near St George's Street"
      },
      "longitude": "-2.078137"
    },
    "context": "",
    "outcome_status": null,
    "persistent_id": "",
    "id": 91340507,
    "location_subtype": "",
    "month": "2021-03"
  },
  {
    "category": "anti-social-behaviour",
    "location_type": "Force",
    "location": {
      "latitude": "51.906761",
      "street": {
        "id": 708441,
        "name": "On or near Quebec Drive"
      },
      "longitude": "-2.112650"
    },
    "context": "",
    "outcome_status": null,
    "persistent_id": "",
    "id": 91340514,
    "location_subtype": "",
    "month": "2021-03"
  },
  {
    "category": "anti-social-behaviour",
    "location_type": "Force",
    "location": {
      "latitude": "51.902006",
      "street": {
        "id": 708085,
        "name": "On or near Britten Place"
      },
      "longitude": "-2.111505"
    },
    "context": "",
    "outcome_status": null,
    "persistent_id": "",
    "id": 91339937,
    "location_subtype": "",
    "month": "2021-03"
  },
  {
    "category": "anti-social-behaviour",
    "location_type": "Force",
    "location": {
      "latitude": "51.906917",
      "street": {
        "id": 708502,
        "name": "On or near Hawthorn Road"
      },
      "longitude": "-2.110107"
    },
    "context": "",
    "outcome_status": null,
    "persistent_id": "",
    "id": 91340516,
    "location_subtype": "",
    "month": "2021-03"
  },
  {
    "category": "anti-social-behaviour",
    "location_type": "Force",
    "location": {
      "latitude": "51.898899",
      "street": {
        "id": 708109,
        "name": "On or near Pitman Road"
      },
      "longitude": "-2.116729"
    },
    "context": "",
    "outcome_status": null,
    "persistent_id": "",
    "id": 91340569,
    "location_subtype": "",
    "month": "2021-03"
  },
  {
    "category": "anti-social-behaviour",
    "location_type": "Force",
    "location": {
      "latitude": "51.909251",
      "street": {
        "id": 708614,
        "name": "On or near Crab Tree Place"
      },
      "longitude": "-2.081374"
    },
    "context": "",
    "outcome_status": null,
    "persistent_id": "",
    "id": 91340581,
    "location_subtype": "",
    "month": "2021-03"
  },
  {
    "category": "anti-social-behaviour",
    "location_type": "Force",
    "location": {
      "latitude": "51.900693",
      "street": {
        "id": 707943,
        "name": "On or near St George's Place"
      },
      "longitude": "-2.079367"
    },
    "context": "",
    "outcome_status": null,
    "persistent_id": "",
    "id": 91340590,
    "location_subtype": "",
    "month": "2021-03"
  },
  {
    "category": "anti-social-behaviour",
    "location_type": "Force",
    "location": {
      "latitude": "51.901457",
      "street": {
        "id": 708076,
        "name": "On or near Goldsmith Close"
      },
      "longitude": "-2.112797"
    },
    "context": "",
    "outcome_status": null,
    "persistent_id": "",
    "id": 91340601,
    "location_subtype": "",
    "month": "2021-03"
  },
  {
    "category": "anti-social-behaviour",
    "location_type": "Force",
    "location": {
      "latitude": "51.906488",
      "street": {
        "id": 708562,
        "name": "On or near Townsend Street"
      },
      "longitude": "-2.084407"
    },
    "context": "",
    "outcome_status": null,
    "persistent_id": "",
    "id": 91340604,
    "location_subtype": "",
    "month": "2021-03"
  },
  {
    "category": "anti-social-behaviour",
    "location_type": "Force",
    "location": {
      "latitude": "51.897822",
      "street": {
        "id": 707959,
        "name": "On or near Parabola Close"
      },
      "longitude": "-2.082792"
    },
    "context": "",
    "outcome_status": null,
    "persistent_id": "",
    "id": 91339928,
    "location_subtype": "",
    "month": "2021-03"
  },
  {
    "category": "anti-social-behaviour",
    "location_type": "Force",
    "location": {
      "latitude": "51.908235",
      "street": {
        "id": 708493,
        "name": "On or near Barbridge Road"
      },
      "longitude": "-2.113643"
    },
    "context": "",
    "outcome_status": null,
    "persistent_id": "",
    "id": 91340717,
    "location_subtype": "",
    "month": "2021-03"
  },
  {
    "category": "anti-social-behaviour",
    "location_type": "Force",
    "location": {
      "latitude": "51.899151",
      "street": {
        "id": 708162,
        "name": "On or near Stow Court"
      },
      "longitude": "-2.097473"
    },
    "context": "",
    "outcome_status": null,
    "persistent_id": "",
    "id": 91340740,
    "location_subtype": "",
    "month": "2021-03"
  },
  {
    "category": "anti-social-behaviour",
    "location_type": "Force",
    "location": {
      "latitude": "51.903263",
      "street": {
        "id": 708073,
        "name": "On or near Laxton Road"
      },
      "longitude": "-2.113150"
    },
    "context": "",
    "outcome_status": null,
    "persistent_id": "",
    "id": 91341143,
    "location_subtype": "",
    "month": "2021-03"
  },
  {
    "category": "anti-social-behaviour",
    "location_type": "Force",
    "location": {
      "latitude": "51.905839",
      "street": {
        "id": 708452,
        "name": "On or near Orchard Avenue"
      },
      "longitude": "-2.109014"
    },
    "context": "",
    "outcome_status": null,
    "persistent_id": "",
    "id": 91340790,
    "location_subtype": "",
    "month": "2021-03"
  },
  {
    "category": "anti-social-behaviour",
    "location_type": "Force",
    "location": {
      "latitude": "51.915506",
      "street": {
        "id": 708397,
        "name": "On or near Rosebay Gardens"
      },
      "longitude": "-2.116045"
    },
    "context": "",
    "outcome_status": null,
    "persistent_id": "",
    "id": 91340807,
    "location_subtype": "",
    "month": "2021-03"
  },
  {
    "category": "anti-social-behaviour",
    "location_type": "Force",
    "location": {
      "latitude": "51.903151",
      "street": {
        "id": 708066,
        "name": "On or near St Aidans Close"
      },
      "longitude": "-2.117220"
    },
    "context": "",
    "outcome_status": null,
    "persistent_id": "",
    "id": 91340848,
    "location_subtype": "",
    "month": "2021-03"
  },
  {
    "category": "anti-social-behaviour",
    "location_type": "Force",
    "location": {
      "latitude": "51.893750",
      "street": {
        "id": 707977,
        "name": "On or near Lansdown Road"
      },
      "longitude": "-2.093596"
    },
    "context": "",
    "outcome_status": null,
    "persistent_id": "",
    "id": 91340855,
    "location_subtype": "",
    "month": "2021-03"
  },
  {
    "category": "anti-social-behaviour",
    "location_type": "Force",
    "location": {
      "latitude": "51.902949",
      "street": {
        "id": 707895,
        "name": "On or near Royal Oak Mews"
      },
      "longitude": "-2.080577"
    },
    "context": "",
    "outcome_status": null,
    "persistent_id": "",
    "id": 91340868,
    "location_subtype": "",
    "month": "2021-03"
  },
  {
    "category": "anti-social-behaviour",
    "location_type": "Force",
    "location": {
      "latitude": "51.905711",
      "street": {
        "id": 708489,
        "name": "On or near Blenheim Square"
      },
      "longitude": "-2.110642"
    },
    "context": "",
    "outcome_status": null,
    "persistent_id": "",
    "id": 91339924,
    "location_subtype": "",
    "month": "2021-03"
  },
  {
    "category": "anti-social-behaviour",
    "location_type": "Force",
    "location": {
      "latitude": "51.903067",
      "street": {
        "id": 707905,
        "name": "On or near High Street"
      },
      "longitude": "-2.079022"
    },
    "context": "",
    "outcome_status": null,
    "persistent_id": "",
    "id": 91340872,
    "location_subtype": "",
    "month": "2021-03"
  },
  {
    "category": "anti-social-behaviour",
    "location_type": "Force",
    "location": {
      "latitude": "51.908983",
      "street": {
        "id": 708559,
        "name": "On or near Waterloo Street"
      },
      "longitude": "-2.090633"
    },
    "context": "",
    "outcome_status": null,
    "persistent_id": "",
    "id": 91340880,
    "location_subtype": "",
    "month": "2021-03"
  },
  {
    "category": "anti-social-behaviour",
    "location_type": "Force",
    "location": {
      "latitude": "51.903666",
      "street": {
        "id": 708551,
        "name": "On or near Burton Street"
      },
      "longitude": "-2.083195"
    },
    "context": "",
    "outcome_status": null,
    "persistent_id": "",
    "id": 91340886,
    "location_subtype": "",
    "month": "2021-03"
  },
  {
    "category": "anti-social-behaviour",
    "location_type": "Force",
    "location": {
      "latitude": "51.905839",
      "street": {
        "id": 708452,
        "name": "On or near Orchard Avenue"
      },
      "longitude": "-2.109014"
    },
    "context": "",
    "outcome_status": null,
    "persistent_id": "",
    "id": 91339914,
    "location_subtype": "",
    "month": "2021-03"
  },
  {
    "category": "anti-social-behaviour",
    "location_type": "Force",
    "location": {
      "latitude": "51.905518",
      "street": {
        "id": 708499,
        "name": "On or near Sports/recreation Area"
      },
      "longitude": "-2.105699"
    },
    "context": "",
    "outcome_status": null,
    "persistent_id": "",
    "id": 91340933,
    "location_subtype": "",
    "month": "2021-03"
  },
  {
    "category": "anti-social-behaviour",
    "location_type": "Force",
    "location": {
      "latitude": "51.901613",
      "street": {
        "id": 707903,
        "name": "On or near Honeybourne Way"
      },
      "longitude": "-2.086999"
    },
    "context": "",
    "outcome_status": null,
    "persistent_id": "",
    "id": 91340939,
    "location_subtype": "",
    "month": "2021-03"
  },
  {
    "category": "anti-social-behaviour",
    "location_type": "Force",
    "location": {
      "latitude": "51.902850",
      "street": {
        "id": 707917,
        "name": "On or near Alstone Avenue"
      },
      "longitude": "-2.092365"
    },
    "context": "",
    "outcome_status": null,
    "persistent_id": "",
    "id": 91339913,
    "location_subtype": "",
    "month": "2021-03"
  },
  {
    "category": "anti-social-behaviour",
    "location_type": "Force",
    "location": {
      "latitude": "51.901634",
      "street": {
        "id": 708074,
        "name": "On or near Hamlet Close"
      },
      "longitude": "-2.115414"
    },
    "context": "",
    "outcome_status": null,
    "persistent_id": "",
    "id": 91340946,
    "location_subtype": "",
    "month": "2021-03"
  },
  {
    "category": "anti-social-behaviour",
    "location_type": "Force",
    "location": {
      "latitude": "51.910623",
      "street": {
        "id": 708425,
        "name": "On or near Moors Avenue"
      },
      "longitude": "-2.096931"
    },
    "context": "",
    "outcome_status": null,
    "persistent_id": "",
    "id": 91340948,
    "location_subtype": "",
    "month": "2021-03"
  },
  {
    "category": "anti-social-behaviour",
    "location_type": "Force",
    "location": {
      "latitude": "51.901654",
      "street": {
        "id": 707908,
        "name": "On or near Gloucester Road"
      },
      "longitude": "-2.092043"
    },
    "context": "",
    "outcome_status": null,
    "persistent_id": "",
    "id": 91340987,
    "location_subtype": "",
    "month": "2021-03"
  },
  {
    "category": "anti-social-behaviour",
    "location_type": "Force",
    "location": {
      "latitude": "51.909793",
      "street": {
        "id": 708558,
        "name": "On or near Waterloo Street"
      },
      "longitude": "-2.089908"
    },
    "context": "",
    "outcome_status": null,
    "persistent_id": "",
    "id": 91340990,
    "location_subtype": "",
    "month": "2021-03"
  },
  {
    "category": "anti-social-behaviour",
    "location_type": "Force",
    "location": {
      "latitude": "51.902400",
      "street": {
        "id": 708084,
        "name": "On or near Buckingham Avenue"
      },
      "longitude": "-2.103265"
    },
    "context": "",
    "outcome_status": null,
    "persistent_id": "",
    "id": 91341015,
    "location_subtype": "",
    "month": "2021-03"
  },
  {
    "category": "anti-social-behaviour",
    "location_type": "Force",
    "location": {
      "latitude": "51.905536",
      "street": {
        "id": 708606,
        "name": "On or near Granville Street"
      },
      "longitude": "-2.082966"
    },
    "context": "",
    "outcome_status": null,
    "persistent_id": "",
    "id": 91341367,
    "location_subtype": "",
    "month": "2021-03"
  },
  {
    "category": "anti-social-behaviour",
    "location_type": "Force",
    "location": {
      "latitude": "51.912850",
      "street": {
        "id": 708430,
        "name": "On or near Howell Road"
      },
      "longitude": "-2.110209"
    },
    "context": "",
    "outcome_status": null,
    "persistent_id": "",
    "id": 91341371,
    "location_subtype": "",
    "month": "2021-03"
  },
  {
    "category": "anti-social-behaviour",
    "location_type": "Force",
    "location": {
      "latitude": "51.893899",
      "street": {
        "id": 708133,
        "name": "On or near Granley Road"
      },
      "longitude": "-2.108549"
    },
    "context": "",
    "outcome_status": null,
    "persistent_id": "",
    "id": 91339902,
    "location_subtype": "",
    "month": "2021-03"
  },
  {
    "category": "anti-social-behaviour",
    "location_type": "Force",
    "location": {
      "latitude": "51.911782",
      "street": {
        "id": 708421,
        "name": "On or near Brook Road"
      },
      "longitude": "-2.098111"
    },
    "context": "",
    "outcome_status": null,
    "persistent_id": "",
    "id": 91339894,
    "location_subtype": "",
    "month": "2021-03"
  },
  {
    "category": "anti-social-behaviour",
    "location_type": "Force",
    "location": {
      "latitude": "51.903260",
      "street": {
        "id": 708087,
        "name": "On or near Sports/recreation Area"
      },
      "longitude": "-2.106784"
    },
    "context": "",
    "outcome_status": null,
    "persistent_id": "",
    "id": 91341413,
    "location_subtype": "",
    "month": "2021-03"
  },
  {
    "category": "anti-social-behaviour",
    "location_type": "Force",
    "location": {
      "latitude": "51.905304",
      "street": {
        "id": 708488,
        "name": "On or near Braeburn Close"
      },
      "longitude": "-2.113243"
    },
    "context": "",
    "outcome_status": null,
    "persistent_id": "",
    "id": 91341417,
    "location_subtype": "",
    "month": "2021-03"
  },
  {
    "category": "anti-social-behaviour",
    "location_type": "Force",
    "location": {
      "latitude": "51.910069",
      "street": {
        "id": 708552,
        "name": "On or near Pedestrian Subway"
      },
      "longitude": "-2.092859"
    },
    "context": "",
    "outcome_status": null,
    "persistent_id": "",
    "id": 91341423,
    "location_subtype": "",
    "month": "2021-03"
  },
  {
    "category": "anti-social-behaviour",
    "location_type": "Force",
    "location": {
      "latitude": "51.903595",
      "street": {
        "id": 708431,
        "name": "On or near Anapa Mews"
      },
      "longitude": "-2.114270"
    },
    "context": "",
    "outcome_status": null,
    "persistent_id": "",
    "id": 91341153,
    "location_subtype": "",
    "month": "2021-03"
  },
  {
    "category": "anti-social-behaviour",
    "location_type": "Force",
    "location": {
      "latitude": "51.918041",
      "street": {
        "id": 700925,
        "name": "On or near Supermarket"
      },
      "longitude": "-2.106761"
    },
    "context": "",
    "outcome_status": null,
    "persistent_id": "",
    "id": 91341424,
    "location_subtype": "",
    "month": "2021-03"
  },
  {
    "category": "anti-social-behaviour",
    "location_type": "Force",
    "location": {
      "latitude": "51.907724",
      "street": {
        "id": 708561,
        "name": "On or near Victoria Street"
      },
      "longitude": "-2.079350"
    },
    "context": "",
    "outcome_status": null,
    "persistent_id": "",
    "id": 91341427,
    "location_subtype": "",
    "month": "2021-03"
  },
  {
    "category": "anti-social-behaviour",
    "location_type": "Force",
    "location": {
      "latitude": "51.901599",
      "street": {
        "id": 707897,
        "name": "On or near Pates Avenue"
      },
      "longitude": "-2.094223"
    },
    "context": "",
    "outcome_status": null,
    "persistent_id": "",
    "id": 91341433,
    "location_subtype": "",
    "month": "2021-03"
  },
  {
    "category": "anti-social-behaviour",
    "location_type": "Force",
    "location": {
      "latitude": "51.895902",
      "street": {
        "id": 708220,
        "name": "On or near Stanway Road"
      },
      "longitude": "-2.120035"
    },
    "context": "",
    "outcome_status": null,
    "persistent_id": "",
    "id": 91341470,
    "location_subtype": "",
    "month": "2021-03"
  },
  {
    "category": "anti-social-behaviour",
    "location_type": "Force",
    "location": {
      "latitude": "51.897667",
      "street": {
        "id": 708113,
        "name": "On or near Monks Croft"
      },
      "longitude": "-2.117162"
    },
    "context": "",
    "outcome_status": null,
    "persistent_id": "",
    "id": 91340169,
    "location_subtype": "",
    "month": "2021-03"
  },
  {
    "category": "anti-social-behaviour",
    "location_type": "Force",
    "location": {
      "latitude": "51.906967",
      "street": {
        "id": 708619,
        "name": "On or near Clarke Way"
      },
      "longitude": "-2.080599"
    },
    "context": "",
    "outcome_status": null,
    "persistent_id": "",
    "id": 91341893,
    "location_subtype": "",
    "month": "2021-03"
  },
  {
    "category": "anti-social-behaviour",
    "location_type": "Force",
    "location": {
      "latitude": "51.903263",
      "street": {
        "id": 708073,
        "name": "On or near Laxton Road"
      },
      "longitude": "-2.113150"
    },
    "context": "",
    "outcome_status": null,
    "persistent_id": "",
    "id": 91341017,
    "location_subtype": "",
    "month": "2021-03"
  },
  {
    "category": "anti-social-behaviour",
    "location_type": "Force",
    "location": {
      "latitude": "51.895133",
      "street": {
        "id": 707919,
        "name": "On or near Queens Lane"
      },
      "longitude": "-2.084371"
    },
    "context": "",
    "outcome_status": null,
    "persistent_id": "",
    "id": 91341020,
    "location_subtype": "",
    "month": "2021-03"
  },
  {
    "category": "anti-social-behaviour",
    "location_type": "Force",
    "location": {
      "latitude": "51.907849",
      "street": {
        "id": 708467,
        "name": "On or near Lechmere Road"
      },
      "longitude": "-2.113118"
    },
    "context": "",
    "outcome_status": null,
    "persistent_id": "",
    "id": 91341056,
    "location_subtype": "",
    "month": "2021-03"
  },
  {
    "category": "anti-social-behaviour",
    "location_type": "Force",
    "location": {
      "latitude": "51.906488",
      "street": {
        "id": 708562,
        "name": "On or near Townsend Street"
      },
      "longitude": "-2.084407"
    },
    "context": "",
    "outcome_status": null,
    "persistent_id": "",
    "id": 91340186,
    "location_subtype": "",
    "month": "2021-03"
  },
  {
    "category": "anti-social-behaviour",
    "location_type": "Force",
    "location": {
      "latitude": "51.903067",
      "street": {
        "id": 707905,
        "name": "On or near High Street"
      },
      "longitude": "-2.079022"
    },
    "context": "",
    "outcome_status": null,
    "persistent_id": "",
    "id": 91339757,
    "location_subtype": "",
    "month": "2021-03"
  },
  {
    "category": "anti-social-behaviour",
    "location_type": "Force",
    "location": {
      "latitude": "51.910346",
      "street": {
        "id": 708593,
        "name": "On or near Marsh Drive"
      },
      "longitude": "-2.083629"
    },
    "context": "",
    "outcome_status": null,
    "persistent_id": "",
    "id": 91339758,
    "location_subtype": "",
    "month": "2021-03"
  },
  {
    "category": "anti-social-behaviour",
    "location_type": "Force",
    "location": {
      "latitude": "51.915127",
      "street": {
        "id": 708506,
        "name": "On or near Windyridge Gardens"
      },
      "longitude": "-2.086400"
    },
    "context": "",
    "outcome_status": null,
    "persistent_id": "",
    "id": 91339783,
    "location_subtype": "",
    "month": "2021-03"
  },
  {
    "category": "anti-social-behaviour",
    "location_type": "Force",
    "location": {
      "latitude": "51.905800",
      "street": {
        "id": 708532,
        "name": "On or near St Paul's Lane"
      },
      "longitude": "-2.078707"
    },
    "context": "",
    "outcome_status": null,
    "persistent_id": "",
    "id": 91340892,
    "location_subtype": "",
    "month": "2021-03"
  },
  {
    "category": "anti-social-behaviour",
    "location_type": "Force",
    "location": {
      "latitude": "51.904162",
      "street": {
        "id": 708478,
        "name": "On or near Dowty Road"
      },
      "longitude": "-2.113196"
    },
    "context": "",
    "outcome_status": null,
    "persistent_id": "",
    "id": 91341058,
    "location_subtype": "",
    "month": "2021-03"
  },
  {
    "category": "anti-social-behaviour",
    "location_type": "Force",
    "location": {
      "latitude": "51.892648",
      "street": {
        "id": 708007,
        "name": "On or near Andover Road"
      },
      "longitude": "-2.088348"
    },
    "context": "",
    "outcome_status": null,
    "persistent_id": "",
    "id": 91339977,
    "location_subtype": "",
    "month": "2021-03"
  },
  {
    "category": "anti-social-behaviour",
    "location_type": "Force",
    "location": {
      "latitude": "51.895464",
      "street": {
        "id": 708155,
        "name": "On or near Benhall Avenue"
      },
      "longitude": "-2.117287"
    },
    "context": "",
    "outcome_status": null,
    "persistent_id": "",
    "id": 91341076,
    "location_subtype": "",
    "month": "2021-03"
  },
  {
    "category": "anti-social-behaviour",
    "location_type": "Force",
    "location": {
      "latitude": "51.903170",
      "street": {
        "id": 708056,
        "name": "On or near Alstone Lane"
      },
      "longitude": "-2.097075"
    },
    "context": "",
    "outcome_status": null,
    "persistent_id": "",
    "id": 91339807,
    "location_subtype": "",
    "month": "2021-03"
  },
  {
    "category": "anti-social-behaviour",
    "location_type": "Force",
    "location": {
      "latitude": "51.904697",
      "street": {
        "id": 708420,
        "name": "On or near Bryanstone Close"
      },
      "longitude": "-2.098444"
    },
    "context": "",
    "outcome_status": null,
    "persistent_id": "",
    "id": 91341079,
    "location_subtype": "",
    "month": "2021-03"
  },
  {
    "category": "anti-social-behaviour",
    "location_type": "Force",
    "location": {
      "latitude": "51.909314",
      "street": {
        "id": 708486,
        "name": "On or near Brooklyn Close"
      },
      "longitude": "-2.103164"
    },
    "context": "",
    "outcome_status": null,
    "persistent_id": "",
    "id": 91342117,
    "location_subtype": "",
    "month": "2021-03"
  },
  {
    "category": "anti-social-behaviour",
    "location_type": "Force",
    "location": {
      "latitude": "51.900693",
      "street": {
        "id": 707943,
        "name": "On or near St George's Place"
      },
      "longitude": "-2.079367"
    },
    "context": "",
    "outcome_status": null,
    "persistent_id": "",
    "id": 91341083,
    "location_subtype": "",
    "month": "2021-03"
  },
  {
    "category": "anti-social-behaviour",
    "location_type": "Force",
    "location": {
      "latitude": "51.906649",
      "street": {
        "id": 708427,
        "name": "On or near Arle Road"
      },
      "longitude": "-2.097533"
    },
    "context": "",
    "outcome_status": null,
    "persistent_id": "",
    "id": 91342269,
    "location_subtype": "",
    "month": "2021-03"
  },
  {
    "category": "anti-social-behaviour",
    "location_type": "Force",
    "location": {
      "latitude": "51.896440",
      "street": {
        "id": 708136,
        "name": "On or near Gloucester Road"
      },
      "longitude": "-2.102205"
    },
    "context": "",
    "outcome_status": null,
    "persistent_id": "",
    "id": 91342265,
    "location_subtype": "",
    "month": "2021-03"
  },
  {
    "category": "anti-social-behaviour",
    "location_type": "Force",
    "location": {
      "latitude": "51.908700",
      "street": {
        "id": 708636,
        "name": "On or near Sports/recreation Area"
      },
      "longitude": "-2.096011"
    },
    "context": "",
    "outcome_status": null,
    "persistent_id": "",
    "id": 91342263,
    "location_subtype": "",
    "month": "2021-03"
  },
  {
    "category": "anti-social-behaviour",
    "location_type": "Force",
    "location": {
      "latitude": "51.915127",
      "street": {
        "id": 708506,
        "name": "On or near Windyridge Gardens"
      },
      "longitude": "-2.086400"
    },
    "context": "",
    "outcome_status": null,
    "persistent_id": "",
    "id": 91342247,
    "location_subtype": "",
    "month": "2021-03"
  },
  {
    "category": "anti-social-behaviour",
    "location_type": "Force",
    "location": {
      "latitude": "51.905711",
      "street": {
        "id": 708489,
        "name": "On or near Blenheim Square"
      },
      "longitude": "-2.110642"
    },
    "context": "",
    "outcome_status": null,
    "persistent_id": "",
    "id": 91342245,
    "location_subtype": "",
    "month": "2021-03"
  },
  {
    "category": "anti-social-behaviour",
    "location_type": "Force",
    "location": {
      "latitude": "51.903260",
      "street": {
        "id": 708087,
        "name": "On or near Sports/recreation Area"
      },
      "longitude": "-2.106784"
    },
    "context": "",
    "outcome_status": null,
    "persistent_id": "",
    "id": 91342233,
    "location_subtype": "",
    "month": "2021-03"
  },
  {
    "category": "anti-social-behaviour",
    "location_type": "Force",
    "location": {
      "latitude": "51.907849",
      "street": {
        "id": 708467,
        "name": "On or near Lechmere Road"
      },
      "longitude": "-2.113118"
    },
    "context": "",
    "outcome_status": null,
    "persistent_id": "",
    "id": 91342093,
    "location_subtype": "",
    "month": "2021-03"
  },
  {
    "category": "anti-social-behaviour",
    "location_type": "Force",
    "location": {
      "latitude": "51.909528",
      "street": {
        "id": 708446,
        "name": "On or near Pennsylvania Avenue"
      },
      "longitude": "-2.105578"
    },
    "context": "",
    "outcome_status": null,
    "persistent_id": "",
    "id": 91342059,
    "location_subtype": "",
    "month": "2021-03"
  },
  {
    "category": "anti-social-behaviour",
    "location_type": "Force",
    "location": {
      "latitude": "51.915955",
      "street": {
        "id": 708405,
        "name": "On or near Hayden Road"
      },
      "longitude": "-2.106698"
    },
    "context": "",
    "outcome_status": null,
    "persistent_id": "",
    "id": 91342011,
    "location_subtype": "",
    "month": "2021-03"
  },
  {
    "category": "anti-social-behaviour",
    "location_type": "Force",
    "location": {
      "latitude": "51.903067",
      "street": {
        "id": 707905,
        "name": "On or near High Street"
      },
      "longitude": "-2.079022"
    },
    "context": "",
    "outcome_status": null,
    "persistent_id": "",
    "id": 91341999,
    "location_subtype": "",
    "month": "2021-03"
  },
  {
    "category": "anti-social-behaviour",
    "location_type": "Force",
    "location": {
      "latitude": "51.902453",
      "street": {
        "id": 708179,
        "name": "On or near Peacock Close"
      },
      "longitude": "-2.123221"
    },
    "context": "",
    "outcome_status": null,
    "persistent_id": "",
    "id": 91341987,
    "location_subtype": "",
    "month": "2021-03"
  },
  {
    "category": "anti-social-behaviour",
    "location_type": "Force",
    "location": {
      "latitude": "51.900216",
      "street": {
        "id": 708106,
        "name": "On or near Shakespeare Road"
      },
      "longitude": "-2.112154"
    },
    "context": "",
    "outcome_status": null,
    "persistent_id": "",
    "id": 91341976,
    "location_subtype": "",
    "month": "2021-03"
  },
  {
    "category": "anti-social-behaviour",
    "location_type": "Force",
    "location": {
      "latitude": "51.902580",
      "street": {
        "id": 707910,
        "name": "On or near Chapel Street"
      },
      "longitude": "-2.080112"
    },
    "context": "",
    "outcome_status": null,
    "persistent_id": "",
    "id": 91341956,
    "location_subtype": "",
    "month": "2021-03"
  },
  {
    "category": "anti-social-behaviour",
    "location_type": "Force",
    "location": {
      "latitude": "51.897637",
      "street": {
        "id": 708117,
        "name": "On or near Libertus Court"
      },
      "longitude": "-2.101219"
    },
    "context": "",
    "outcome_status": null,
    "persistent_id": "",
    "id": 91341945,
    "location_subtype": "",
    "month": "2021-03"
  },
  {
    "category": "anti-social-behaviour",
    "location_type": "Force",
    "location": {
      "latitude": "51.906488",
      "street": {
        "id": 708562,
        "name": "On or near Townsend Street"
      },
      "longitude": "-2.084407"
    },
    "context": "",
    "outcome_status": null,
    "persistent_id": "",
    "id": 91341936,
    "location_subtype": "",
    "month": "2021-03"
  },
  {
    "category": "anti-social-behaviour",
    "location_type": "Force",
    "location": {
      "latitude": "51.897637",
      "street": {
        "id": 708117,
        "name": "On or near Libertus Court"
      },
      "longitude": "-2.101219"
    },
    "context": "",
    "outcome_status": null,
    "persistent_id": "",
    "id": 91341922,
    "location_subtype": "",
    "month": "2021-03"
  },
  {
    "category": "anti-social-behaviour",
    "location_type": "Force",
    "location": {
      "latitude": "51.896913",
      "street": {
        "id": 700956,
        "name": "On or near Griffiths Avenue"
      },
      "longitude": "-2.106173"
    },
    "context": "",
    "outcome_status": null,
    "persistent_id": "",
    "id": 91341917,
    "location_subtype": "",
    "month": "2021-03"
  },
  {
    "category": "anti-social-behaviour",
    "location_type": "Force",
    "location": {
      "latitude": "51.905950",
      "street": {
        "id": 708464,
        "name": "On or near Lucinia Mews"
      },
      "longitude": "-2.105017"
    },
    "context": "",
    "outcome_status": null,
    "persistent_id": "",
    "id": 91341677,
    "location_subtype": "",
    "month": "2021-03"
  },
  {
    "category": "anti-social-behaviour",
    "location_type": "Force",
    "location": {
      "latitude": "51.892933",
      "street": {
        "id": 708104,
        "name": "On or near Shelburne Road"
      },
      "longitude": "-2.103679"
    },
    "context": "",
    "outcome_status": null,
    "persistent_id": "",
    "id": 91341617,
    "location_subtype": "",
    "month": "2021-03"
  },
  {
    "category": "anti-social-behaviour",
    "location_type": "Force",
    "location": {
      "latitude": "51.905711",
      "street": {
        "id": 708489,
        "name": "On or near Blenheim Square"
      },
      "longitude": "-2.110642"
    },
    "context": "",
    "outcome_status": null,
    "persistent_id": "",
    "id": 91341603,
    "location_subtype": "",
    "month": "2021-03"
  },
  {
    "category": "anti-social-behaviour",
    "location_type": "Force",
    "location": {
      "latitude": "51.902959",
      "street": {
        "id": 707913,
        "name": "On or near Ambrose Street"
      },
      "longitude": "-2.079124"
    },
    "context": "",
    "outcome_status": null,
    "persistent_id": "",
    "id": 91341598,
    "location_subtype": "",
    "month": "2021-03"
  },
  {
    "category": "bicycle-theft",
    "location_type": "Force",
    "location": {
      "latitude": "51.898325",
      "street": {
        "id": 708125,
        "name": "On or near Hillfield"
      },
      "longitude": "-2.106264"
    },
    "context": "",
    "outcome_status": {
      "category": "Investigation complete; no suspect identified",
      "date": "2021-03"
    },
    "persistent_id": "ac2f41e3a9e4222d0d2cce79fac3db1cf95279bdb384f9ecda6b06a41da24eed",
    "id": 91338348,
    "location_subtype": "",
    "month": "2021-03"
  },
  {
    "category": "bicycle-theft",
    "location_type": "Force",
    "location": {
      "latitude": "51.902959",
      "street": {
        "id": 708080,
        "name": "On or near Dorset Avenue"
      },
      "longitude": "-2.102423"
    },
    "context": "",
    "outcome_status": {
      "category": "Under investigation",
      "date": "2021-03"
    },
    "persistent_id": "f780dc0fb120fe11083d11197c455fdfd884c1798e8c5a3b3f027560c79551d5",
    "id": 91338077,
    "location_subtype": "",
    "month": "2021-03"
  },
  {
    "category": "bicycle-theft",
    "location_type": "Force",
    "location": {
      "latitude": "51.907367",
      "street": {
        "id": 708356,
        "name": "On or near Falkland Place"
      },
      "longitude": "-2.118583"
    },
    "context": "",
    "outcome_status": {
      "category": "Investigation complete; no suspect identified",
      "date": "2021-03"
    },
    "persistent_id": "ac6c670c78e37e7aff7a5073427bf21d314fa2ed45e434e5a356a34869e2ca0a",
    "id": 91338561,
    "location_subtype": "",
    "month": "2021-03"
  },
  {
    "category": "bicycle-theft",
    "location_type": "Force",
    "location": {
      "latitude": "51.912053",
      "street": {
        "id": 708477,
        "name": "On or near Dunelm Close"
      },
      "longitude": "-2.107110"
    },
    "context": "",
    "outcome_status": {
      "category": "Investigation complete; no suspect identified",
      "date": "2021-03"
    },
    "persistent_id": "2c07da7f0c876b8fb1dc84d261dbd73f70931a68e7b5f949b2d18832fb1ab810",
    "id": 91336737,
    "location_subtype": "",
    "month": "2021-03"
  },
  {
    "category": "bicycle-theft",
    "location_type": "Force",
    "location": {
      "latitude": "51.909713",
      "street": {
        "id": 708436,
        "name": "On or near Tanner's Lane"
      },
      "longitude": "-2.109779"
    },
    "context": "",
    "outcome_status": {
      "category": "Under investigation",
      "date": "2021-03"
    },
    "persistent_id": "a387719cc773f512de4862350133e5986e2ce4f7c15af4a0805cf4b603dd170c",
    "id": 91336874,
    "location_subtype": "",
    "month": "2021-03"
  },
  {
    "category": "bicycle-theft",
    "location_type": "Force",
    "location": {
      "latitude": "51.905647",
      "street": {
        "id": 708530,
        "name": "On or near St Paul's Street North"
      },
      "longitude": "-2.078227"
    },
    "context": "",
    "outcome_status": {
      "category": "Under investigation",
      "date": "2021-03"
    },
    "persistent_id": "f7be7c30c6ff7079c4d9342148cca8a50e25b889639c330d1000bf83b3fc344f",
    "id": 91336681,
    "location_subtype": "",
    "month": "2021-03"
  },
  {
    "category": "bicycle-theft",
    "location_type": "Force",
    "location": {
      "latitude": "51.916996",
      "street": {
        "id": 708946,
        "name": "On or near Coppice Gate"
      },
      "longitude": "-2.109245"
    },
    "context": "",
    "outcome_status": {
      "category": "Under investigation",
      "date": "2021-03"
    },
    "persistent_id": "40f12e3ba513332d94582ba16a1845feafdd1a6f0164b081d53092258526b3b3",
    "id": 91337886,
    "location_subtype": "",
    "month": "2021-03"
  },
  {
    "category": "burglary",
    "location_type": "Force",
    "location": {
      "latitude": "51.915340",
      "street": {
        "id": 708508,
        "name": "On or near Stanwick Drive"
      },
      "longitude": "-2.090762"
    },
    "context": "",
    "outcome_status": {
      "category": "Investigation complete; no suspect identified",
      "date": "2021-03"
    },
    "persistent_id": "047db06a7dcda95968803506a66bf425a8e8f1186cf215f406f25bf270084d2f",
    "id": 91337814,
    "location_subtype": "",
    "month": "2021-03"
  },
  {
    "category": "burglary",
    "location_type": "Force",
    "location": {
      "latitude": "51.915823",
      "street": {
        "id": 708518,
        "name": "On or near Chosen View Road"
      },
      "longitude": "-2.093264"
    },
    "context": "",
    "outcome_status": {
      "category": "Under investigation",
      "date": "2021-03"
    },
    "persistent_id": "85b98978bc8560d344b9665c2c6bf546a0ccf781c8c01fcbcdefae7e8040041a",
    "id": 91338604,
    "location_subtype": "",
    "month": "2021-03"
  },
  {
    "category": "burglary",
    "location_type": "Force",
    "location": {
      "latitude": "51.915823",
      "street": {
        "id": 708518,
        "name": "On or near Chosen View Road"
      },
      "longitude": "-2.093264"
    },
    "context": "",
    "outcome_status": {
      "category": "Under investigation",
      "date": "2021-03"
    },
    "persistent_id": "2a56f705847871438131aada6840e8b8315df504e3b667671cb345e81eadfe53",
    "id": 91338603,
    "location_subtype": "",
    "month": "2021-03"
  },
  {
    "category": "burglary",
    "location_type": "Force",
    "location": {
      "latitude": "51.915823",
      "street": {
        "id": 708518,
        "name": "On or near Chosen View Road"
      },
      "longitude": "-2.093264"
    },
    "context": "",
    "outcome_status": {
      "category": "Under investigation",
      "date": "2021-03"
    },
    "persistent_id": "5d252ef4e2f41f159d375565e5c97025e52f050ff3b4028b950b71fd2786d049",
    "id": 91338602,
    "location_subtype": "",
    "month": "2021-03"
  },
  {
    "category": "burglary",
    "location_type": "Force",
    "location": {
      "latitude": "51.897356",
      "street": {
        "id": 708100,
        "name": "On or near Spenser Road"
      },
      "longitude": "-2.113092"
    },
    "context": "",
    "outcome_status": {
      "category": "Under investigation",
      "date": "2021-03"
    },
    "persistent_id": "c4a86bba449d04460d3cdb86545669a9c8b91b38a1d3ef0a78a3f02431ee7055",
    "id": 91337868,
    "location_subtype": "",
    "month": "2021-03"
  },
  {
    "category": "burglary",
    "location_type": "Force",
    "location": {
      "latitude": "51.906649",
      "street": {
        "id": 708427,
        "name": "On or near Arle Road"
      },
      "longitude": "-2.097533"
    },
    "context": "",
    "outcome_status": {
      "category": "Under investigation",
      "date": "2021-03"
    },
    "persistent_id": "0ccee9f0c6801e45ad916ed99b9324be5dd48618f8fd4c43e3295ffad9069e87",
    "id": 91339672,
    "location_subtype": "",
    "month": "2021-03"
  },
  {
    "category": "burglary",
    "location_type": "Force",
    "location": {
      "latitude": "51.910301",
      "street": {
        "id": 708575,
        "name": "On or near St Peters Close"
      },
      "longitude": "-2.095607"
    },
    "context": "",
    "outcome_status": {
      "category": "Under investigation",
      "date": "2021-03"
    },
    "persistent_id": "6eae036f4abc10141f511f1e5ce6b71847abca5671dfd1db3ef37079bd814111",
    "id": 91338162,
    "location_subtype": "",
    "month": "2021-03"
  },
  {
    "category": "burglary",
    "location_type": "Force",
    "location": {
      "latitude": "51.896435",
      "street": {
        "id": 700957,
        "name": "On or near Lansdown Terrace Lane"
      },
      "longitude": "-2.086248"
    },
    "context": "",
    "outcome_status": {
      "category": "Under investigation",
      "date": "2021-03"
    },
    "persistent_id": "d6c1b90e1d7321c29815ab8cde9cfec6dbbefe50c07383d3ca72948acd2ac8dc",
    "id": 91336827,
    "location_subtype": "",
    "month": "2021-03"
  },
  {
    "category": "burglary",
    "location_type": "Force",
    "location": {
      "latitude": "51.914753",
      "street": {
        "id": 708395,
        "name": "On or near Seabright Close"
      },
      "longitude": "-2.113528"
    },
    "context": "",
    "outcome_status": {
      "category": "Under investigation",
      "date": "2021-03"
    },
    "persistent_id": "0ccc069e3cf45ec473bfcf3a07ea6b5a1a75891e85cfefa2f8ff28aaecb90083",
    "id": 91337725,
    "location_subtype": "",
    "month": "2021-03"
  },
  {
    "category": "burglary",
    "location_type": "Force",
    "location": {
      "latitude": "51.897507",
      "street": {
        "id": 708095,
        "name": "On or near Wasley Road"
      },
      "longitude": "-2.115287"
    },
    "context": "",
    "outcome_status": {
      "category": "Investigation complete; no suspect identified",
      "date": "2021-03"
    },
    "persistent_id": "c801003db8e28f4ff483b2a4a0e72c82d1bd9533e7d676d1bce18b6b61e768b9",
    "id": 91338130,
    "location_subtype": "",
    "month": "2021-03"
  },
  {
    "category": "burglary",
    "location_type": "Force",
    "location": {
      "latitude": "51.894267",
      "street": {
        "id": 707980,
        "name": "On or near Lansdown Place"
      },
      "longitude": "-2.087581"
    },
    "context": "",
    "outcome_status": {
      "category": "Investigation complete; no suspect identified",
      "date": "2021-03"
    },
    "persistent_id": "b140c65ebde5ab91f8b32a2782f808c97438a0f158dcd2cb0edc178afbf28eb7",
    "id": 91338379,
    "location_subtype": "",
    "month": "2021-03"
  },
  {
    "category": "burglary",
    "location_type": "Force",
    "location": {
      "latitude": "51.896404",
      "street": {
        "id": 707997,
        "name": "On or near Christ Church Road"
      },
      "longitude": "-2.092381"
    },
    "context": "",
    "outcome_status": {
      "category": "Under investigation",
      "date": "2021-03"
    },
    "persistent_id": "c3b8356c93ba09ae8d324d8101b8c1ea261afac232a2a92bdd39d95bdd00f38e",
    "id": 91336904,
    "location_subtype": "",
    "month": "2021-03"
  },
  {
    "category": "burglary",
    "location_type": "Force",
    "location": {
      "latitude": "51.897356",
      "street": {
        "id": 708100,
        "name": "On or near Spenser Road"
      },
      "longitude": "-2.113092"
    },
    "context": "",
    "outcome_status": {
      "category": "Investigation complete; no suspect identified",
      "date": "2021-03"
    },
    "persistent_id": "f307e4ad44112e6a383e734493a2312ea7dbead74b66de1238f0a067e817684e",
    "id": 91338715,
    "location_subtype": "",
    "month": "2021-03"
  },
  {
    "category": "burglary",
    "location_type": "Force",
    "location": {
      "latitude": "51.901457",
      "street": {
        "id": 708076,
        "name": "On or near Goldsmith Close"
      },
      "longitude": "-2.112797"
    },
    "context": "",
    "outcome_status": {
      "category": "Investigation complete; no suspect identified",
      "date": "2021-03"
    },
    "persistent_id": "05fb720487a6eef0d63e3d2d572e29b996fdce848a8eac080aa7e1ada19b1d92",
    "id": 91338545,
    "location_subtype": "",
    "month": "2021-03"
  },
  {
    "category": "burglary",
    "location_type": "Force",
    "location": {
      "latitude": "51.894985",
      "street": {
        "id": 707981,
        "name": "On or near Lansdown Parade"
      },
      "longitude": "-2.090212"
    },
    "context": "",
    "outcome_status": {
      "category": "Investigation complete; no suspect identified",
      "date": "2021-03"
    },
    "persistent_id": "759c8b70919f3ff96fb203dcadaca67a3cf3168df86c44d983cfdebe192396a6",
    "id": 91336892,
    "location_subtype": "",
    "month": "2021-03"
  },
  {
    "category": "burglary",
    "location_type": "Force",
    "location": {
      "latitude": "51.896404",
      "street": {
        "id": 707997,
        "name": "On or near Christ Church Road"
      },
      "longitude": "-2.092381"
    },
    "context": "",
    "outcome_status": {
      "category": "Under investigation",
      "date": "2021-03"
    },
    "persistent_id": "94948a8fb5b544cc2d2ba34823778820834fbdbe811cadc9abf3e44836f80e50",
    "id": 91339667,
    "location_subtype": "",
    "month": "2021-03"
  },
  {
    "category": "burglary",
    "location_type": "Force",
    "location": {
      "latitude": "51.899350",
      "street": {
        "id": 707942,
        "name": "On or near St George's Road"
      },
      "longitude": "-2.083579"
    },
    "context": "",
    "outcome_status": {
      "category": "Investigation complete; no suspect identified",
      "date": "2021-03"
    },
    "persistent_id": "b71e1f611bcc862d801e966bab1d0b33202a310db6aa3ccffb73c6a6fbc2d651",
    "id": 91336824,
    "location_subtype": "",
    "month": "2021-03"
  },
  {
    "category": "burglary",
    "location_type": "Force",
    "location": {
      "latitude": "51.896397",
      "street": {
        "id": 708115,
        "name": "On or near Milton Avenue"
      },
      "longitude": "-2.110183"
    },
    "context": "",
    "outcome_status": {
      "category": "Under investigation",
      "date": "2021-03"
    },
    "persistent_id": "ab2dab435e6df398bcdf0788769326509569f796221716e26fd87074e447bb9d",
    "id": 91338129,
    "location_subtype": "",
    "month": "2021-03"
  },
  {
    "category": "burglary",
    "location_type": "Force",
    "location": {
      "latitude": "51.896440",
      "street": {
        "id": 708136,
        "name": "On or near Gloucester Road"
      },
      "longitude": "-2.102205"
    },
    "context": "",
    "outcome_status": {
      "category": "Under investigation",
      "date": "2021-03"
    },
    "persistent_id": "dd4f47697cee487670fa715c505f174bfad54073d4a34d7a3640411528d3b421",
    "id": 91336812,
    "location_subtype": "",
    "month": "2021-03"
  },
  {
    "category": "burglary",
    "location_type": "Force",
    "location": {
      "latitude": "51.893608",
      "street": {
        "id": 707978,
        "name": "On or near Lansdown Road"
      },
      "longitude": "-2.091750"
    },
    "context": "",
    "outcome_status": {
      "category": "Under investigation",
      "date": "2021-03"
    },
    "persistent_id": "cbe1ff65b7c8a76299526a3e6202bdbf75f5847c6115b0b29b6a034830c0995a",
    "id": 91338330,
    "location_subtype": "",
    "month": "2021-03"
  },
  {
    "category": "criminal-damage-arson",
    "location_type": "Force",
    "location": {
      "latitude": "51.903626",
      "street": {
        "id": 708550,
        "name": "On or near Millbrook Gardens"
      },
      "longitude": "-2.089125"
    },
    "context": "",
    "outcome_status": {
      "category": "Under investigation",
      "date": "2021-03"
    },
    "persistent_id": "403e8679e6a1e80a3fcb5244df16709a97a2a8be5ce1c62b52a9f9bd7e7645cf",
    "id": 91336484,
    "location_subtype": "",
    "month": "2021-03"
  },
  {
    "category": "criminal-damage-arson",
    "location_type": "Force",
    "location": {
      "latitude": "51.894799",
      "street": {
        "id": 707976,
        "name": "On or near Lansdown Walk"
      },
      "longitude": "-2.086652"
    },
    "context": "",
    "outcome_status": {
      "category": "Investigation complete; no suspect identified",
      "date": "2021-03"
    },
    "persistent_id": "68e1d221081bbe9bca984defcb8565302bab517c4b1a3f91096559cfc1d914de",
    "id": 91338612,
    "location_subtype": "",
    "month": "2021-03"
  },
  {
    "category": "criminal-damage-arson",
    "location_type": "Force",
    "location": {
      "latitude": "51.904227",
      "street": {
        "id": 708579,
        "name": "On or near Scholars Court"
      },
      "longitude": "-2.090638"
    },
    "context": "",
    "outcome_status": {
      "category": "Under investigation",
      "date": "2021-03"
    },
    "persistent_id": "188cc88b9e05df9b59248b9171d6388a57f7e786a097648c74169b7e6c83efd9",
    "id": 91338590,
    "location_subtype": "",
    "month": "2021-03"
  },
  {
    "category": "criminal-damage-arson",
    "location_type": "Force",
    "location": {
      "latitude": "51.903067",
      "street": {
        "id": 707905,
        "name": "On or near High Street"
      },
      "longitude": "-2.079022"
    },
    "context": "",
    "outcome_status": {
      "category": "Under investigation",
      "date": "2021-03"
    },
    "persistent_id": "52fc5b5f3816527943f6e6ab13141ecb353f98b9f15f0ec6c111e8b13393a1a5",
    "id": 91338529,
    "location_subtype": "",
    "month": "2021-03"
  },
  {
    "category": "criminal-damage-arson",
    "location_type": "Force",
    "location": {
      "latitude": "51.905839",
      "street": {
        "id": 708452,
        "name": "On or near Orchard Avenue"
      },
      "longitude": "-2.109014"
    },
    "context": "",
    "outcome_status": {
      "category": "Under investigation",
      "date": "2021-03"
    },
    "persistent_id": "1f7278581ce34fd21a95744d9d9c8b944fff9e9d3580a8cd756a350888945aa1",
    "id": 91338230,
    "location_subtype": "",
    "month": "2021-03"
  },
  {
    "category": "criminal-damage-arson",
    "location_type": "Force",
    "location": {
      "latitude": "51.890443",
      "street": {
        "id": 708156,
        "name": "On or near Belworth Drive"
      },
      "longitude": "-2.103063"
    },
    "context": "",
    "outcome_status": {
      "category": "Investigation complete; no suspect identified",
      "date": "2021-03"
    },
    "persistent_id": "c59645afa3c4c11dacc70e2d5164b6b3af8329b77394a93ea246dd70d4c2512a",
    "id": 91338528,
    "location_subtype": "",
    "month": "2021-03"
  },
  {
    "category": "criminal-damage-arson",
    "location_type": "Force",
    "location": {
      "latitude": "51.901441",
      "street": {
        "id": 707892,
        "name": "On or near St George's Road"
      },
      "longitude": "-2.089688"
    },
    "context": "",
    "outcome_status": {
      "category": "Investigation complete; no suspect identified",
      "date": "2021-03"
    },
    "persistent_id": "4a633597dd52f1ddbdfda6f7795c405a911a3a3949de54d2df878fa1ce0fb0bc",
    "id": 91338440,
    "location_subtype": "",
    "month": "2021-03"
  },
  {
    "category": "criminal-damage-arson",
    "location_type": "Force",
    "location": {
      "latitude": "51.906046",
      "street": {
        "id": 708639,
        "name": "On or near Supermarket"
      },
      "longitude": "-2.086804"
    },
    "context": "",
    "outcome_status": {
      "category": "Investigation complete; no suspect identified",
      "date": "2021-03"
    },
    "persistent_id": "88d16e10b632818018db7329464d49b1c77ce254881aa520959c29b87c9c6dcf",
    "id": 91338428,
    "location_subtype": "",
    "month": "2021-03"
  },
  {
    "category": "criminal-damage-arson",
    "location_type": "Force",
    "location": {
      "latitude": "51.910623",
      "street": {
        "id": 708425,
        "name": "On or near Moors Avenue"
      },
      "longitude": "-2.096931"
    },
    "context": "",
    "outcome_status": {
      "category": "Under investigation",
      "date": "2021-03"
    },
    "persistent_id": "822f0b2aa743bc6c44e0ef61f8c287b1b131328a47e9bc580094feb73c954f9f",
    "id": 91338161,
    "location_subtype": "",
    "month": "2021-03"
  },
  {
    "category": "criminal-damage-arson",
    "location_type": "Force",
    "location": {
      "latitude": "51.905796",
      "street": {
        "id": 708557,
        "name": "On or near White Hart Street"
      },
      "longitude": "-2.084304"
    },
    "context": "",
    "outcome_status": {
      "category": "Under investigation",
      "date": "2021-03"
    },
    "persistent_id": "e492bfc646dedee95c1003aa18fb30807e4d29ef34f58aca393d79964af15b68",
    "id": 91336700,
    "location_subtype": "",
    "month": "2021-03"
  },
  {
    "category": "criminal-damage-arson",
    "location_type": "Force",
    "location": {
      "latitude": "51.903449",
      "street": {
        "id": 708062,
        "name": "On or near Wilson Drive"
      },
      "longitude": "-2.116741"
    },
    "context": "",
    "outcome_status": {
      "category": "Under investigation",
      "date": "2021-03"
    },
    "persistent_id": "1a527e6118a36c3aaca7a03812841dccf220f9eb70813668c6049e02137fc030",
    "id": 91338761,
    "location_subtype": "",
    "month": "2021-03"
  },
  {
    "category": "criminal-damage-arson",
    "location_type": "Force",
    "location": {
      "latitude": "51.914869",
      "street": {
        "id": 708414,
        "name": "On or near Barnett Close"
      },
      "longitude": "-2.114488"
    },
    "context": "",
    "outcome_status": {
      "category": "Under investigation",
      "date": "2021-03"
    },
    "persistent_id": "5eb05bfc8c7d5001ab73d2a32cc7805134e751e4fc71e7e36b6af9f64a45fffd",
    "id": 91338719,
    "location_subtype": "",
    "month": "2021-03"
  },
  {
    "category": "criminal-damage-arson",
    "location_type": "Force",
    "location": {
      "latitude": "51.911194",
      "street": {
        "id": 708465,
        "name": "On or near Lipson Road"
      },
      "longitude": "-2.112240"
    },
    "context": "",
    "outcome_status": {
      "category": "Under investigation",
      "date": "2021-03"
    },
    "persistent_id": "087382acd15060271f2ac5e551813f600ba97c1cedb4959a11053d4227ff2f8e",
    "id": 91338057,
    "location_subtype": "",
    "month": "2021-03"
  },
  {
    "category": "criminal-damage-arson",
    "location_type": "Force",
    "location": {
      "latitude": "51.910623",
      "street": {
        "id": 708425,
        "name": "On or near Moors Avenue"
      },
      "longitude": "-2.096931"
    },
    "context": "",
    "outcome_status": {
      "category": "Investigation complete; no suspect identified",
      "date": "2021-03"
    },
    "persistent_id": "f4a55a50ab73b55dd8bad7e8dbc78c2b5c35e9d9d8ac0dbc6383e45fb93c551d",
    "id": 91338191,
    "location_subtype": "",
    "month": "2021-03"
  },
  {
    "category": "criminal-damage-arson",
    "location_type": "Force",
    "location": {
      "latitude": "51.902572",
      "street": {
        "id": 708078,
        "name": "On or near Edinburgh Place"
      },
      "longitude": "-2.112349"
    },
    "context": "",
    "outcome_status": {
      "category": "Investigation complete; no suspect identified",
      "date": "2021-03"
    },
    "persistent_id": "9141b78b8b83685e69c4fa2b2c2daf906eb608e37733bdb2917633bd5932cc37",
    "id": 91338169,
    "location_subtype": "",
    "month": "2021-03"
  },
  {
    "category": "criminal-damage-arson",
    "location_type": "Force",
    "location": {
      "latitude": "51.907712",
      "street": {
        "id": 708560,
        "name": "On or near Vine Court"
      },
      "longitude": "-2.083348"
    },
    "context": "",
    "outcome_status": {
      "category": "Under investigation",
      "date": "2021-03"
    },
    "persistent_id": "8913e77cfdc4b2c942766cb27d8cd81b72ee843733149d501636f97e84cf8929",
    "id": 91338372,
    "location_subtype": "",
    "month": "2021-03"
  },
  {
    "category": "criminal-damage-arson",
    "location_type": "Force",
    "location": {
      "latitude": "51.911782",
      "street": {
        "id": 708421,
        "name": "On or near Brook Road"
      },
      "longitude": "-2.098111"
    },
    "context": "",
    "outcome_status": {
      "category": "Investigation complete; no suspect identified",
      "date": "2021-03"
    },
    "persistent_id": "6d4e3361765488a9dd543a9df223ce235ed9cf7d67cc80b424f2d75fc601df21",
    "id": 91338108,
    "location_subtype": "",
    "month": "2021-03"
  },
  {
    "category": "criminal-damage-arson",
    "location_type": "Force",
    "location": {
      "latitude": "51.908922",
      "street": {
        "id": 708485,
        "name": "On or near Brooklyn Gardens"
      },
      "longitude": "-2.099805"
    },
    "context": "",
    "outcome_status": {
      "category": "Unable to prosecute suspect",
      "date": "2021-03"
    },
    "persistent_id": "f1d517c80a484443b5d56c45b6f9359c8d2ee0099c532abf3720f4678fe8f3d9",
    "id": 91337906,
    "location_subtype": "",
    "month": "2021-03"
  },