[
  {
    "category": "anti-social-behaviour",
    "location_type": "Force",
    "location": {
      "latitude": "51.896440",
      "street": {
        "id": 708136,
        "name": "On or near Gloucester Road"
      },
      "longitude": "-2.102205"
    },
    "context": "",
    "outcome_status": null,
    "persistent_id": "",
    "id": 88770339,
    "location_subtype": "",
    "month": "2020-11"
  },
  {
    "category": "anti-social-behaviour",
    "location_type": "Force",
    "location": {
      "latitude": "51.910732",
      "street": {
        "id": 700939,
        "name": "On or near Dormer Road"
      },
      "longitude": "-2.106613"
    },
    "context": "",
    "outcome_status": null,
    "persistent_id": "",
    "id": 88770030,
    "location_subtype": "",
    "month": "2020-11"
  },
  {
    "category": "anti-social-behaviour",
    "location_type": "Force",
    "location": {
      "latitude": "51.897507",
      "street": {
        "id": 708095,
        "name": "On or near Wasley Road"
      },
      "longitude": "-2.115287"
    },
    "context": "",
    "outcome_status": null,
    "persistent_id": "",
    "id": 88770609,
    "location_subtype": "",
    "month": "2020-11"
  },
  {
    "category": "anti-social-behaviour",
    "location_type": "Force",
    "location": {
      "latitude": "51.893286",
      "street": {
        "id": 708144,
        "name": "On or near Draycot Road"
      },
      "longitude": "-2.110902"
    },
    "context": "",
    "outcome_status": null,
    "persistent_id": "",
    "id": 88770597,
    "location_subtype": "",
    "month": "2020-11"
  },
  {
    "category": "anti-social-behaviour",
    "location_type": "Force",
    "location": {
      "latitude": "51.903380",
      "street": {
        "id": 708177,
        "name": "On or near Terry Ruck Close"
      },
      "longitude": "-2.122337"
    },
    "context": "",
    "outcome_status": null,
    "persistent_id": "",
    "id": 88770580,
    "location_subtype": "",
    "month": "2020-11"
  },
  {
    "category": "anti-social-behaviour",
    "location_type": "Force",
    "location": {
      "latitude": "51.899262",
      "street": {
        "id": 707948,
        "name": "On or near Royal Well Lane"
      },
      "longitude": "-2.080556"
    },
    "context": "",
    "outcome_status": null,
    "persistent_id": "",
    "id": 88770575,
    "location_subtype": "",
    "month": "2020-11"
  },
  {
    "category": "anti-social-behaviour",
    "location_type": "Force",
    "location": {
      "latitude": "51.901599",
      "street": {
        "id": 707897,
        "name": "On or near Pates Avenue"
      },
      "longitude": "-2.094223"
    },
    "context": "",
    "outcome_status": null,
    "persistent_id": "",
    "id": 88769045,
    "location_subtype": "",
    "month": "2020-11"
  },
  {
    "category": "anti-social-behaviour",
    "location_type": "Force",
    "location": {
      "latitude": "51.917712",
      "street": {
        "id": 708941,
        "name": "On or near Parking Area"
      },
      "longitude": "-2.103256"
    },
    "context": "",
    "outcome_status": null,
    "persistent_id": "",
    "id": 88770559,
    "location_subtype": "",
    "month": "2020-11"
  },
  {
    "category": "anti-social-behaviour",
    "location_type": "Force",
    "location": {
      "latitude": "51.901634",
      "street": {
        "id": 708074,
        "name": "On or near Hamlet Close"
      },
      "longitude": "-2.115414"
    },
    "context": "",
    "outcome_status": null,
    "persistent_id": "",
    "id": 88770548,
    "location_subtype": "",
    "month": "2020-11"
  },
  {
    "category": "anti-social-behaviour",
    "location_type": "Force",
    "location": {
      "latitude": "51.914869",
      "street": {
        "id": 708414,
        "name": "On or near Barnett Close"
      },
      "longitude": "-2.114488"
    },
    "context": "",
    "outcome_status": null,
    "persistent_id": "",
    "id": 88770538,
    "location_subtype": "",
    "month": "2020-11"
  },
  {
    "category": "anti-social-behaviour",
    "location_type": "Force",
    "location": {
      "latitude": "51.907871",
      "street": {
        "id": 708454,
        "name": "On or near Oldbury Close"
      },
      "longitude": "-2.117843"
    },
    "context": "",
    "outcome_status": null,
    "persistent_id": "",
    "id": 88770527,
    "location_subtype": "",
    "month": "2020-11"
  },
  {
    "category": "anti-social-behaviour",
    "location_type": "Force",
    "location": {
      "latitude": "51.897507",
      "street": {
        "id": 708095,
        "name": "On or near Wasley Road"
      },
      "longitude": "-2.115287"
    },
    "context": "",
    "outcome_status": null,
    "persistent_id": "",
    "id": 88770505,
    "location_subtype": "",
    "month": "2020-11"
  },
  {
    "category": "anti-social-behaviour",
    "location_type": "Force",
    "location": {
      "latitude": "51.904263",
      "street": {
        "id": 708533,
        "name": "On or near New Rutland Court"
      },
      "longitude": "-2.078167"
    },
    "context": "",
    "outcome_status": null,
    "persistent_id": "",
    "id": 88770482,
    "location_subtype": "",
    "month": "2020-11"
  },
  {
    "category": "anti-social-behaviour",
    "location_type": "Force",
    "location": {
      "latitude": "51.898934",
      "street": {
        "id": 707960,
        "name": "On or near Overton Road"
      },
      "longitude": "-2.086660"
    },
    "context": "",
    "outcome_status": null,
    "persistent_id": "",
    "id": 88770476,
    "location_subtype": "",
    "month": "2020-11"
  },
  {
    "category": "anti-social-behaviour",
    "location_type": "Force",
    "location": {
      "latitude": "51.898608",
      "street": {
        "id": 708107,
        "name": "On or near Roman Road"
      },
      "longitude": "-2.101178"
    },
    "context": "",
    "outcome_status": null,
    "persistent_id": "",
    "id": 88770456,
    "location_subtype": "",
    "month": "2020-11"
  },
  {
    "category": "anti-social-behaviour",
    "location_type": "Force",
    "location": {
      "latitude": "51.914246",
      "street": {
        "id": 708418,
        "name": "On or near Shopping Area"
      },
      "longitude": "-2.117060"
    },
    "context": "",
    "outcome_status": null,
    "persistent_id": "",
    "id": 88770450,
    "location_subtype": "",
    "month": "2020-11"
  },
  {
    "category": "anti-social-behaviour",
    "location_type": "Force",
    "location": {
      "latitude": "51.914246",
      "street": {
        "id": 708418,
        "name": "On or near Shopping Area"
      },
      "longitude": "-2.117060"
    },
    "context": "",
    "outcome_status": null,
    "persistent_id": "",
    "id": 88770449,
    "location_subtype": "",
    "month": "2020-11"
  },
  {
    "category": "anti-social-behaviour",
    "location_type": "Force",
    "location": {
      "latitude": "51.907849",
      "street": {
        "id": 708467,
        "name": "On or near Lechmere Road"
      },
      "longitude": "-2.113118"
    },
    "context": "",
    "outcome_status": null,
    "persistent_id": "",
    "id": 88770432,
    "location_subtype": "",
    "month": "2020-11"
  },
  {
    "category": "anti-social-behaviour",
    "location_type": "Force",
    "location": {
      "latitude": "51.894985",
      "street": {
        "id": 707981,
        "name": "On or near Lansdown Parade"
      },
      "longitude": "-2.090212"
    },
    "context": "",
    "outcome_status": null,
    "persistent_id": "",
    "id": 88770376,
    "location_subtype": "",
    "month": "2020-11"
  },
  {
    "category": "anti-social-behaviour",
    "location_type": "Force",
    "location": {
      "latitude": "51.894985",
      "street": {
        "id": 707981,
        "name": "On or near Lansdown Parade"
      },
      "longitude": "-2.090212"
    },
    "context": "",
    "outcome_status": null,
    "persistent_id": "",
    "id": 88770367,
    "location_subtype": "",
    "month": "2020-11"
  },
  {
    "category": "anti-social-behaviour",
    "location_type": "Force",
    "location": {
      "latitude": "51.903666",
      "street": {
        "id": 708551,
        "name": "On or near Burton Street"
      },
      "longitude": "-2.083195"
    },
    "context": "",
    "outcome_status": null,
    "persistent_id": "",
    "id": 88770362,
    "location_subtype": "",
    "month": "2020-11"
  },
  {
    "category": "anti-social-behaviour",
    "location_type": "Force",
    "location": {
      "latitude": "51.914246",
      "street": {
        "id": 708418,
        "name": "On or near Shopping Area"
      },
      "longitude": "-2.117060"
    },
    "context": "",
    "outcome_status": null,
    "persistent_id": "",
    "id": 88770357,
    "location_subtype": "",
    "month": "2020-11"
  },
  {
    "category": "anti-social-behaviour",
    "location_type": "Force",
    "location": {
      "latitude": "51.912062",
      "street": {
        "id": 708434,
        "name": "On or near Village Road"
      },
      "longitude": "-2.107503"
    },
    "context": "",
    "outcome_status": null,
    "persistent_id": "",
    "id": 88770352,
    "location_subtype": "",
    "month": "2020-11"
  },
  {
    "category": "anti-social-behaviour",
    "location_type": "Force",
    "location": {
      "latitude": "51.908457",
      "street": {
        "id": 708495,
        "name": "On or near Ashlands Close"
      },
      "longitude": "-2.116027"
    },
    "context": "",
    "outcome_status": null,
    "persistent_id": "",
    "id": 88770350,
    "location_subtype": "",
    "month": "2020-11"
  },
  {
    "category": "anti-social-behaviour",
    "location_type": "Force",
    "location": {
      "latitude": "51.907796",
      "street": {
        "id": 708460,
        "name": "On or near Montreal Drive"
      },
      "longitude": "-2.111330"
    },
    "context": "",
    "outcome_status": null,
    "persistent_id": "",
    "id": 88770347,
    "location_subtype": "",
    "month": "2020-11"
  },
  {
    "category": "anti-social-behaviour",
    "location_type": "Force",
    "location": {
      "latitude": "51.914246",
      "street": {
        "id": 708418,
        "name": "On or near Shopping Area"
      },
      "longitude": "-2.117060"
    },
    "context": "",
    "outcome_status": null,
    "persistent_id": "",
    "id": 88770345,
    "location_subtype": "",
    "month": "2020-11"
  },
  {
    "category": "anti-social-behaviour",
    "location_type": "Force",
    "location": {
      "latitude": "51.907871",
      "street": {
        "id": 708454,
        "name": "On or near Oldbury Close"
      },
      "longitude": "-2.117843"
    },
    "context": "",
    "outcome_status": null,
    "persistent_id": "",
    "id": 88770320,
    "location_subtype": "",
    "month": "2020-11"
  },
  {
    "category": "anti-social-behaviour",
    "location_type": "Force",
    "location": {
      "latitude": "51.900098",
      "street": {
        "id": 707921,
        "name": "On or near Parking Area"
      },
      "longitude": "-2.081575"
    },
    "context": "",
    "outcome_status": null,
    "persistent_id": "",
    "id": 88769033,
    "location_subtype": "",
    "month": "2020-11"
  },
  {
    "category": "anti-social-behaviour",
    "location_type": "Force",
    "location": {
      "latitude": "51.892072",
      "street": {
        "id": 707983,
        "name": "On or near Inkerman Lane"
      },
      "longitude": "-2.089582"
    },
    "context": "",
    "outcome_status": null,
    "persistent_id": "",
    "id": 88769032,
    "location_subtype": "",
    "month": "2020-11"
  },
  {
    "category": "anti-social-behaviour",
    "location_type": "Force",
    "location": {
      "latitude": "51.906649",
      "street": {
        "id": 708427,
        "name": "On or near Arle Road"
      },
      "longitude": "-2.097533"
    },
    "context": "",
    "outcome_status": null,
    "persistent_id": "",
    "id": 88770032,
    "location_subtype": "",
    "month": "2020-11"
  },
  {
    "category": "anti-social-behaviour",
    "location_type": "Force",
    "location": {
      "latitude": "51.907834",
      "street": {
        "id": 708487,
        "name": "On or near Bramley Road"
      },
      "longitude": "-2.110211"
    },
    "context": "",
    "outcome_status": null,
    "persistent_id": "",
    "id": 88770036,
    "location_subtype": "",
    "month": "2020-11"
  },
  {
    "category": "anti-social-behaviour",
    "location_type": "Force",
    "location": {
      "latitude": "51.903666",
      "street": {
        "id": 708551,
        "name": "On or near Burton Street"
      },
      "longitude": "-2.083195"
    },
    "context": "",
    "outcome_status": null,
    "persistent_id": "",
    "id": 88770040,
    "location_subtype": "",
    "month": "2020-11"
  },
  {
    "category": "anti-social-behaviour",
    "location_type": "Force",
    "location": {
      "latitude": "51.912062",
      "street": {
        "id": 708434,
        "name": "On or near Village Road"
      },
      "longitude": "-2.107503"
    },
    "context": "",
    "outcome_status": null,
    "persistent_id": "",
    "id": 88769031,
    "location_subtype": "",
    "month": "2020-11"
  },
  {
    "category": "anti-social-behaviour",
    "location_type": "Force",
    "location": {
      "latitude": "51.896826",
      "street": {
        "id": 708143,
        "name": "On or near Fairmount Road"
      },
      "longitude": "-2.103383"
    },
    "context": "",
    "outcome_status": null,
    "persistent_id": "",
    "id": 88770042,
    "location_subtype": "",
    "month": "2020-11"
  },
  {
    "category": "anti-social-behaviour",
    "location_type": "Force",
    "location": {
      "latitude": "51.899151",
      "street": {
        "id": 708162,
        "name": "On or near Stow Court"
      },
      "longitude": "-2.097473"
    },
    "context": "",
    "outcome_status": null,
    "persistent_id": "",
    "id": 88770681,
    "location_subtype": "",
    "month": "2020-11"
  },
  {
    "category": "anti-social-behaviour",
    "location_type": "Force",
    "location": {
      "latitude": "51.908518",
      "street": {
        "id": 708583,
        "name": "On or near Queen Street"
      },
      "longitude": "-2.087303"
    },
    "context": "",
    "outcome_status": null,
    "persistent_id": "",
    "id": 88770050,
    "location_subtype": "",
    "month": "2020-11"
  },
  {
    "category": "anti-social-behaviour",
    "location_type": "Force",
    "location": {
      "latitude": "51.908600",
      "street": {
        "id": 708570,
        "name": "On or near Swindon Close"
      },
      "longitude": "-2.086140"
    },
    "context": "",
    "outcome_status": null,
    "persistent_id": "",
    "id": 88770660,
    "location_subtype": "",
    "month": "2020-11"
  },
  {
    "category": "anti-social-behaviour",
    "location_type": "Force",
    "location": {
      "latitude": "51.905050",
      "street": {
        "id": 708602,
        "name": "On or near High Street"
      },
      "longitude": "-2.083837"
    },
    "context": "",
    "outcome_status": null,
    "persistent_id": "",
    "id": 88770313,
    "location_subtype": "",
    "month": "2020-11"
  },
  {
    "category": "anti-social-behaviour",
    "location_type": "Force",
    "location": {
      "latitude": "51.908526",
      "street": {
        "id": 708571,
        "name": "On or near Sun Street"
      },
      "longitude": "-2.088146"
    },
    "context": "",
    "outcome_status": null,
    "persistent_id": "",
    "id": 88770289,
    "location_subtype": "",
    "month": "2020-11"
  },
  {
    "category": "anti-social-behaviour",
    "location_type": "Force",
    "location": {
      "latitude": "51.914869",
      "street": {
        "id": 708414,
        "name": "On or near Barnett Close"
      },
      "longitude": "-2.114488"
    },
    "context": "",
    "outcome_status": null,
    "persistent_id": "",
    "id": 88770277,
    "location_subtype": "",
    "month": "2020-11"
  },
  {
    "category": "anti-social-behaviour",
    "location_type": "Force",
    "location": {
      "latitude": "51.898863",
      "street": {
        "id": 708146,
        "name": "On or near Cowper Road"
      },
      "longitude": "-2.117412"
    },
    "context": "",
    "outcome_status": null,
    "persistent_id": "",
    "id": 88770272,
    "location_subtype": "",
    "month": "2020-11"
  },
  {
    "category": "anti-social-behaviour",
    "location_type": "Force",
    "location": {
      "latitude": "51.907796",
      "street": {
        "id": 708460,
        "name": "On or near Montreal Drive"
      },
      "longitude": "-2.111330"
    },
    "context": "",
    "outcome_status": null,
    "persistent_id": "",
    "id": 88770255,
    "location_subtype": "",
    "month": "2020-11"
  },
  {
    "category": "anti-social-behaviour",
    "location_type": "Force",
    "location": {
      "latitude": "51.895133",
      "street": {
        "id": 707919,
        "name": "On or near Queens Lane"
      },
      "longitude": "-2.084371"
    },
    "context": "",
    "outcome_status": null,
    "persistent_id": "",
    "id": 88770235,
    "location_subtype": "",
    "month": "2020-11"
  },
  {
    "category": "anti-social-behaviour",
    "location_type": "Force",
    "location": {
      "latitude": "51.903449",
      "street": {
        "id": 708062,
        "name": "On or near Wilson Drive"
      },
      "longitude": "-2.116741"
    },
    "context": "",
    "outcome_status": null,
    "persistent_id": "",
    "id": 88770231,
    "location_subtype": "",
    "month": "2020-11"
  },
  {
    "category": "anti-social-behaviour",
    "location_type": "Force",
    "location": {
      "latitude": "51.906649",
      "street": {
        "id": 708427,
        "name": "On or near Arle Road"
      },
      "longitude": "-2.097533"
    },
    "context": "",
    "outcome_status": null,
    "persistent_id": "",
    "id": 88770229,
    "location_subtype": "",
    "month": "2020-11"
  },
  {
    "category": "anti-social-behaviour",
    "location_type": "Force",
    "location": {
      "latitude": "51.903281",
      "street": {
        "id": 707909,
        "name": "On or near Devonshire Street"
      },
      "longitude": "-2.081508"
    },
    "context": "",
    "outcome_status": null,
    "persistent_id": "",
    "id": 88770217,
    "location_subtype": "",
    "month": "2020-11"
  },
  {
    "category": "anti-social-behaviour",
    "location_type": "Force",
    "location": {
      "latitude": "51.914246",
      "street": {
        "id": 708418,
        "name": "On or near Shopping Area"
      },
      "longitude": "-2.117060"
    },
    "context": "",
    "outcome_status": null,
    "persistent_id": "",
    "id": 88770093,
    "location_subtype": "",
    "month": "2020-11"
  },
  {
    "category": "anti-social-behaviour",
    "location_type": "Force",
    "location": {
      "latitude": "51.909494",
      "street": {
        "id": 708378,
        "name": "On or near Helens Close"
      },
      "longitude": "-2.121743"
    },
    "context": "",
    "outcome_status": null,
    "persistent_id": "",
    "id": 88770074,
    "location_subtype": "",
    "month": "2020-11"
  },
  {
    "category": "anti-social-behaviour",
    "location_type": "Force",
    "location": {
      "latitude": "51.903626",
      "street": {
        "id": 708550,
        "name": "On or near Millbrook Gardens"
      },
      "longitude": "-2.089125"
    },
    "context": "",
    "outcome_status": null,
    "persistent_id": "",
    "id": 88770056,
    "location_subtype": "",
    "month": "2020-11"
  },
  {
    "category": "anti-social-behaviour",
    "location_type": "Force",
    "location": {
      "latitude": "51.903792",
      "street": {
        "id": 708548,
        "name": "On or near Park Street"
      },
      "longitude": "-2.083675"
    },
    "context": "",
    "outcome_status": null,
    "persistent_id": "",
    "id": 88769030,
    "location_subtype": "",
    "month": "2020-11"
  },
  {
    "category": "anti-social-behaviour",
    "location_type": "Force",
    "location": {
      "latitude": "51.895934",
      "street": {
        "id": 707949,
        "name": "On or near Royal Parade Mews"
      },
      "longitude": "-2.082745"
    },
    "context": "",
    "outcome_status": null,
    "persistent_id": "",
    "id": 88769024,
    "location_subtype": "",
    "month": "2020-11"
  },
  {
    "category": "anti-social-behaviour",
    "location_type": "Force",
    "location": {
      "latitude": "51.903380",
      "street": {
        "id": 708177,
        "name": "On or near Terry Ruck Close"
      },
      "longitude": "-2.122337"
    },
    "context": "",
    "outcome_status": null,
    "persistent_id": "",
    "id": 88768785,
    "location_subtype": "",
    "month": "2020-11"
  },
  {
    "category": "anti-social-behaviour",
    "location_type": "Force",
    "location": {
      "latitude": "51.918041",
      "street": {
        "id": 700925,
        "name": "On or near Supermarket"
      },
      "longitude": "-2.106761"
    },
    "context": "",
    "outcome_status": null,
    "persistent_id": "",
    "id": 88768774,
    "location_subtype": "",
    "month": "2020-11"
  },
  {
    "category": "anti-social-behaviour",
    "location_type": "Force",
    "location": {
      "latitude": "51.909738",
      "street": {
        "id": 708497,
        "name": "On or near Sports/recreation Area"
      },
      "longitude": "-2.111393"
    },
    "context": "",
    "outcome_status": null,
    "persistent_id": "",
    "id": 88768773,
    "location_subtype": "",
    "month": "2020-11"
  },
  {
    "category": "anti-social-behaviour",
    "location_type": "Force",
    "location": {
      "latitude": "51.909738",
      "street": {
        "id": 708497,
        "name": "On or near Sports/recreation Area"
      },
      "longitude": "-2.111393"
    },
    "context": "",
    "outcome_status": null,
    "persistent_id": "",
    "id": 88768762,
    "location_subtype": "",
    "month": "2020-11"
  },
  {
    "category": "anti-social-behaviour",
    "location_type": "Force",
    "location": {
      "latitude": "51.911194",
      "street": {
        "id": 708465,
        "name": "On or near Lipson Road"
      },
      "longitude": "-2.112240"
    },
    "context": "",
    "outcome_status": null,
    "persistent_id": "",
    "id": 88768761,
    "location_subtype": "",
    "month": "2020-11"
  },
  {
    "category": "anti-social-behaviour",
    "location_type": "Force",
    "location": {
      "latitude": "51.902572",
      "street": {
        "id": 708078,
        "name": "On or near Edinburgh Place"
      },
      "longitude": "-2.112349"
    },
    "context": "",
    "outcome_status": null,
    "persistent_id": "",
    "id": 88768758,
    "location_subtype": "",
    "month": "2020-11"
  },
  {
    "category": "anti-social-behaviour",
    "location_type": "Force",
    "location": {
      "latitude": "51.901599",
      "street": {
        "id": 707897,
        "name": "On or near Pates Avenue"
      },
      "longitude": "-2.094223"
    },
    "context": "",
    "outcome_status": null,
    "persistent_id": "",
    "id": 88768727,
    "location_subtype": "",
    "month": "2020-11"
  },
  {
    "category": "anti-social-behaviour",
    "location_type": "Force",
    "location": {
      "latitude": "51.904227",
      "street": {
        "id": 708579,
        "name": "On or near Scholars Court"
      },
      "longitude": "-2.090638"
    },
    "context": "",
    "outcome_status": null,
    "persistent_id": "",
    "id": 88768689,
    "location_subtype": "",
    "month": "2020-11"
  },
  {
    "category": "anti-social-behaviour",
    "location_type": "Force",
    "location": {
      "latitude": "51.894878",
      "street": {
        "id": 708055,
        "name": "On or near Lansdown Crescent Lane"
      },
      "longitude": "-2.088236"
    },
    "context": "",
    "outcome_status": null,
    "persistent_id": "",
    "id": 88768663,
    "location_subtype": "",
    "month": "2020-11"
  },
  {
    "category": "anti-social-behaviour",
    "location_type": "Force",
    "location": {
      "latitude": "51.903030",
      "street": {
        "id": 708181,
        "name": "On or near Heapey Close"
      },
      "longitude": "-2.121987"
    },
    "context": "",
    "outcome_status": null,
    "persistent_id": "",
    "id": 88768661,
    "location_subtype": "",
    "month": "2020-11"
  },
  {
    "category": "anti-social-behaviour",
    "location_type": "Force",
    "location": {
      "latitude": "51.908509",
      "street": {
        "id": 708351,
        "name": "On or near Hester's Way Road"
      },
      "longitude": "-2.118179"
    },
    "context": "",
    "outcome_status": null,
    "persistent_id": "",
    "id": 88768644,
    "location_subtype": "",
    "month": "2020-11"
  },
  {
    "category": "anti-social-behaviour",
    "location_type": "Force",
    "location": {
      "latitude": "51.914341",
      "street": {
        "id": 708398,
        "name": "On or near Riverview Way"
      },
      "longitude": "-2.102652"
    },
    "context": "",
    "outcome_status": null,
    "persistent_id": "",
    "id": 88768642,
    "location_subtype": "",
    "month": "2020-11"
  },
  {
    "category": "anti-social-behaviour",
    "location_type": "Force",
    "location": {
      "latitude": "51.901599",
      "street": {
        "id": 707897,
        "name": "On or near Pates Avenue"
      },
      "longitude": "-2.094223"
    },
    "context": "",
    "outcome_status": null,
    "persistent_id": "",
    "id": 88768639,
    "location_subtype": "",
    "month": "2020-11"
  },
  {
    "category": "anti-social-behaviour",
    "location_type": "Force",
    "location": {
      "latitude": "51.893379",
      "street": {
        "id": 708165,
        "name": "On or near Police Station"
      },
      "longitude": "-2.096806"
    },
    "context": "",
    "outcome_status": null,
    "persistent_id": "",
    "id": 88768638,
    "location_subtype": "",
    "month": "2020-11"
  },
  {
    "category": "anti-social-behaviour",
    "location_type": "Force",
    "location": {
      "latitude": "51.903723",
      "street": {
        "id": 708527,
        "name": "On or near St George's Street"
      },
      "longitude": "-2.078137"
    },
    "context": "",
    "outcome_status": null,
    "persistent_id": "",
    "id": 88768616,
    "location_subtype": "",
    "month": "2020-11"
  },
  {
    "category": "anti-social-behaviour",
    "location_type": "Force",
    "location": {
      "latitude": "51.906710",
      "street": {
        "id": 708355,
        "name": "On or near Graham Place"
      },
      "longitude": "-2.119482"
    },
    "context": "",
    "outcome_status": null,
    "persistent_id": "",
    "id": 88768801,
    "location_subtype": "",
    "month": "2020-11"
  },
  {
    "category": "anti-social-behaviour",
    "location_type": "Force",
    "location": {
      "latitude": "51.917412",
      "street": {
        "id": 708925,
        "name": "On or near Huntscote Road"
      },
      "longitude": "-2.096640"
    },
    "context": "",
    "outcome_status": null,
    "persistent_id": "",
    "id": 88768799,
    "location_subtype": "",
    "month": "2020-11"
  },
  {
    "category": "anti-social-behaviour",
    "location_type": "Force",
    "location": {
      "latitude": "51.915524",
      "street": {
        "id": 708514,
        "name": "On or near Kingsditch Lane"
      },
      "longitude": "-2.096636"
    },
    "context": "",
    "outcome_status": null,
    "persistent_id": "",
    "id": 88768795,
    "location_subtype": "",
    "month": "2020-11"
  },
  {
    "category": "anti-social-behaviour",
    "location_type": "Force",
    "location": {
      "latitude": "51.902440",
      "street": {
        "id": 708174,
        "name": "On or near Lloyd Close"
      },
      "longitude": "-2.118802"
    },
    "context": "",
    "outcome_status": null,
    "persistent_id": "",
    "id": 88768789,
    "location_subtype": "",
    "month": "2020-11"
  },
  {
    "category": "anti-social-behaviour",
    "location_type": "Force",
    "location": {
      "latitude": "51.900681",
      "street": {
        "id": 707927,
        "name": "On or near Vineyards Lane"
      },
      "longitude": "-2.094889"
    },
    "context": "",
    "outcome_status": null,
    "persistent_id": "",
    "id": 88769256,
    "location_subtype": "",
    "month": "2020-11"
  },
  {
    "category": "anti-social-behaviour",
    "location_type": "Force",
    "location": {
      "latitude": "51.901613",
      "street": {
        "id": 707903,
        "name": "On or near Honeybourne Way"
      },
      "longitude": "-2.086999"
    },
    "context": "",
    "outcome_status": null,
    "persistent_id": "",
    "id": 88769616,
    "location_subtype": "",
    "month": "2020-11"
  },
  {
    "category": "anti-social-behaviour",
    "location_type": "Force",
    "location": {
      "latitude": "51.903581",
      "street": {
        "id": 708342,
        "name": "On or near Lewis Road"
      },
      "longitude": "-2.119445"
    },
    "context": "",
    "outcome_status": null,
    "persistent_id": "",
    "id": 88769257,
    "location_subtype": "",
    "month": "2020-11"
  },
  {
    "category": "anti-social-behaviour",
    "location_type": "Force",
    "location": {
      "latitude": "51.899151",
      "street": {
        "id": 708162,
        "name": "On or near Stow Court"
      },
      "longitude": "-2.097473"
    },
    "context": "",
    "outcome_status": null,
    "persistent_id": "",
    "id": 88769268,
    "location_subtype": "",
    "month": "2020-11"
  },
  {
    "category": "anti-social-behaviour",
    "location_type": "Force",
    "location": {
      "latitude": "51.904871",
      "street": {
        "id": 708603,
        "name": "On or near High Street"
      },
      "longitude": "-2.083444"
    },
    "context": "",
    "outcome_status": null,
    "persistent_id": "",
    "id": 88769269,
    "location_subtype": "",
    "month": "2020-11"
  },
  {
    "category": "anti-social-behaviour",
    "location_type": "Force",
    "location": {
      "latitude": "51.909747",
      "street": {
        "id": 708613,
        "name": "On or near Elm Close"
      },
      "longitude": "-2.090954"
    },
    "context": "",
    "outcome_status": null,
    "persistent_id": "",
    "id": 88769270,
    "location_subtype": "",
    "month": "2020-11"
  },
  {
    "category": "anti-social-behaviour",
    "location_type": "Force",
    "location": {
      "latitude": "51.910301",
      "street": {
        "id": 708575,
        "name": "On or near St Peters Close"
      },
      "longitude": "-2.095607"
    },
    "context": "",
    "outcome_status": null,
    "persistent_id": "",
    "id": 88769279,
    "location_subtype": "",
    "month": "2020-11"
  },
  {
    "category": "anti-social-behaviour",
    "location_type": "Force",
    "location": {
      "latitude": "51.899151",
      "street": {
        "id": 708162,
        "name": "On or near Stow Court"
      },
      "longitude": "-2.097473"
    },
    "context": "",
    "outcome_status": null,
    "persistent_id": "",
    "id": 88769305,
    "location_subtype": "",
    "month": "2020-11"
  },
  {
    "category": "anti-social-behaviour",
    "location_type": "Force",
    "location": {
      "latitude": "51.900098",
      "street": {
        "id": 707921,
        "name": "On or near Parking Area"
      },
      "longitude": "-2.081575"
    },
    "context": "",
    "outcome_status": null,
    "persistent_id": "",
    "id": 88769308,
    "location_subtype": "",
    "month": "2020-11"
  },
  {
    "category": "anti-social-behaviour",
    "location_type": "Force",
    "location": {
      "latitude": "51.899151",
      "street": {
        "id": 708162,
        "name": "On or near Stow Court"
      },
      "longitude": "-2.097473"
    },
    "context": "",
    "outcome_status": null,
    "persistent_id": "",
    "id": 88769320,
    "location_subtype": "",
    "month": "2020-11"
  },
  {
    "category": "anti-social-behaviour",
    "location_type": "Force",
    "location": {
      "latitude": "51.899151",
      "street": {
        "id": 708162,
        "name": "On or near Stow Court"
      },
      "longitude": "-2.097473"
    },
    "context": "",
    "outcome_status": null,
    "persistent_id": "",
    "id": 88769324,
    "location_subtype": "",
    "month": "2020-11"
  },
  {
    "category": "anti-social-behaviour",
    "location_type": "Force",
    "location": {
      "latitude": "51.898864",
      "street": {
        "id": 707958,
        "name": "On or near Parabola Lane"
      },
      "longitude": "-2.083840"
    },
    "context": "",
    "outcome_status": null,
    "persistent_id": "",
    "id": 88769085,
    "location_subtype": "",
    "month": "2020-11"
  },
  {
    "category": "anti-social-behaviour",
    "location_type": "Force",
    "location": {
      "latitude": "51.904091",
      "street": {
        "id": 708576,
        "name": "On or near St Paul's Street South"
      },
      "longitude": "-2.079184"
    },
    "context": "",
    "outcome_status": null,
    "persistent_id": "",
    "id": 88769107,
    "location_subtype": "",
    "month": "2020-11"
  },
  {
    "category": "anti-social-behaviour",
    "location_type": "Force",
    "location": {
      "latitude": "51.898863",
      "street": {
        "id": 708146,
        "name": "On or near Cowper Road"
      },
      "longitude": "-2.117412"
    },
    "context": "",
    "outcome_status": null,
    "persistent_id": "",
    "id": 88769136,
    "location_subtype": "",
    "month": "2020-11"
  },
  {
    "category": "anti-social-behaviour",
    "location_type": "Force",
    "location": {
      "latitude": "51.908142",
      "street": {
        "id": 708569,
        "name": "On or near Swindon Road"
      },
      "longitude": "-2.084599"
    },
    "context": "",
    "outcome_status": null,
    "persistent_id": "",
    "id": 88769563,
    "location_subtype": "",
    "month": "2020-11"
  },
  {
    "category": "anti-social-behaviour",
    "location_type": "Force",
    "location": {
      "latitude": "51.910505",
      "street": {
        "id": 708611,
        "name": "On or near Elmfield Road"
      },
      "longitude": "-2.087103"
    },
    "context": "",
    "outcome_status": null,
    "persistent_id": "",
    "id": 88768988,
    "location_subtype": "",
    "month": "2020-11"
  },
  {
    "category": "anti-social-behaviour",
    "location_type": "Force",
    "location": {
      "latitude": "51.911194",
      "street": {
        "id": 708465,
        "name": "On or near Lipson Road"
      },
      "longitude": "-2.112240"
    },
    "context": "",
    "outcome_status": null,
    "persistent_id": "",
    "id": 88769572,
    "location_subtype": "",
    "month": "2020-11"
  },
  {
    "category": "anti-social-behaviour",
    "location_type": "Force",
    "location": {
      "latitude": "51.901654",
      "street": {
        "id": 707908,
        "name": "On or near Gloucester Road"
      },
      "longitude": "-2.092043"
    },
    "context": "",
    "outcome_status": null,
    "persistent_id": "",
    "id": 88769579,
    "location_subtype": "",
    "month": "2020-11"
  },
  {
    "category": "anti-social-behaviour",
    "location_type": "Force",
    "location": {
      "latitude": "51.903666",
      "street": {
        "id": 708551,
        "name": "On or near Burton Street"
      },
      "longitude": "-2.083195"
    },
    "context": "",
    "outcome_status": null,
    "persistent_id": "",
    "id": 88769589,
    "location_subtype": "",
    "month": "2020-11"
  },
  {
    "category": "anti-social-behaviour",
    "location_type": "Force",
    "location": {
      "latitude": "51.906761",
      "street": {
        "id": 708441,
        "name": "On or near Quebec Drive"
      },
      "longitude": "-2.112650"
    },
    "context": "",
    "outcome_status": null,
    "persistent_id": "",
    "id": 88769603,
    "location_subtype": "",
    "month": "2020-11"
  },
  {
    "category": "anti-social-behaviour",
    "location_type": "Force",
    "location": {
      "latitude": "51.901599",
      "street": {
        "id": 707897,
        "name": "On or near Pates Avenue"
      },
      "longitude": "-2.094223"
    },
    "context": "",
    "outcome_status": null,
    "persistent_id": "",
    "id": 88769609,
    "location_subtype": "",
    "month": "2020-11"
  },
  {
    "category": "anti-social-behaviour",
    "location_type": "Force",
    "location": {
      "latitude": "51.899600",
      "street": {
        "id": 707961,
        "name": "On or near Overton Park Road"
      },
      "longitude": "-2.086050"
    },
    "context": "",
    "outcome_status": null,
    "persistent_id": "",
    "id": 88769620,
    "location_subtype": "",
    "month": "2020-11"
  },
  {
    "category": "anti-social-behaviour",
    "location_type": "Force",
    "location": {
      "latitude": "51.897507",
      "street": {
        "id": 708095,
        "name": "On or near Wasley Road"
      },
      "longitude": "-2.115287"
    },
    "context": "",
    "outcome_status": null,
    "persistent_id": "",
    "id": 88768972,
    "location_subtype": "",
    "month": "2020-11"
  },
  {
    "category": "anti-social-behaviour",
    "location_type": "Force",
    "location": {
      "latitude": "51.904015",
      "street": {
        "id": 708595,
        "name": "On or near Market Street"
      },
      "longitude": "-2.085681"
    },
    "context": "",
    "outcome_status": null,
    "persistent_id": "",
    "id": 88769171,
    "location_subtype": "",
    "month": "2020-11"
  },
  {
    "category": "anti-social-behaviour",
    "location_type": "Force",
    "location": {
      "latitude": "51.915605",
      "street": {
        "id": 708391,
        "name": "On or near Waldrist Close"
      },
      "longitude": "-2.106581"
    },
    "context": "",
    "outcome_status": null,
    "persistent_id": "",
    "id": 88769176,
    "location_subtype": "",
    "month": "2020-11"
  },
  {
    "category": "anti-social-behaviour",
    "location_type": "Force",
    "location": {
      "latitude": "51.898863",
      "street": {
        "id": 708146,
        "name": "On or near Cowper Road"
      },
      "longitude": "-2.117412"
    },
    "context": "",
    "outcome_status": null,
    "persistent_id": "",
    "id": 88769191,
    "location_subtype": "",
    "month": "2020-11"
  },
  {
    "category": "anti-social-behaviour",
    "location_type": "Force",
    "location": {
      "latitude": "51.904869",
      "street": {
        "id": 708626,
        "name": "On or near Bloomsbury Street"
      },
      "longitude": "-2.085959"
    },
    "context": "",
    "outcome_status": null,
    "persistent_id": "",
    "id": 88769199,
    "location_subtype": "",
    "month": "2020-11"
  },
  {
    "category": "anti-social-behaviour",
    "location_type": "Force",
    "location": {
      "latitude": "51.909738",
      "street": {
        "id": 708497,
        "name": "On or near Sports/recreation Area"
      },
      "longitude": "-2.111393"
    },
    "context": "",
    "outcome_status": null,
    "persistent_id": "",
    "id": 88768971,
    "location_subtype": "",
    "month": "2020-11"
  },
  {
    "category": "anti-social-behaviour",
    "location_type": "Force",
    "location": {
      "latitude": "51.903449",
      "street": {
        "id": 708062,
        "name": "On or near Wilson Drive"
      },
      "longitude": "-2.116741"
    },
    "context": "",
    "outcome_status": null,
    "persistent_id": "",
    "id": 88769216,
    "location_subtype": "",
    "month": "2020-11"
  },
  {
    "category": "anti-social-behaviour",
    "location_type": "Force",
    "location": {
      "latitude": "51.915127",
      "street": {
        "id": 708506,
        "name": "On or near Windyridge Gardens"
      },
      "longitude": "-2.086400"
    },
    "context": "",
    "outcome_status": null,
    "persistent_id": "",
    "id": 88768959,
    "location_subtype": "",
    "month": "2020-11"
  },
  {
    "category": "anti-social-behaviour",
    "location_type": "Force",
    "location": {
      "latitude": "51.907288",
      "street": {
        "id": 708618,
        "name": "On or near Cleeveland Street"
      },
      "longitude": "-2.085629"
    },
    "context": "",
    "outcome_status": null,
    "persistent_id": "",
    "id": 88769230,
    "location_subtype": "",
    "month": "2020-11"
  },
  {
    "category": "anti-social-behaviour",
    "location_type": "Force",
    "location": {
      "latitude": "51.908509",
      "street": {
        "id": 708351,
        "name": "On or near Hester's Way Road"
      },
      "longitude": "-2.118179"
    },
    "context": "",
    "outcome_status": null,
    "persistent_id": "",
    "id": 88768955,
    "location_subtype": "",
    "month": "2020-11"
  },
  {
    "category": "anti-social-behaviour",
    "location_type": "Force",
    "location": {
      "latitude": "51.916034",
      "street": {
        "id": 708402,
        "name": "On or near Newland View"
      },
      "longitude": "-2.109126"
    },
    "context": "",
    "outcome_status": null,
    "persistent_id": "",
    "id": 88769234,
    "location_subtype": "",
    "month": "2020-11"
  },
  {
    "category": "anti-social-behaviour",
    "location_type": "Force",
    "location": {
      "latitude": "51.915524",
      "street": {
        "id": 708514,
        "name": "On or near Kingsditch Lane"
      },
      "longitude": "-2.096636"
    },
    "context": "",
    "outcome_status": null,
    "persistent_id": "",
    "id": 88768918,
    "location_subtype": "",
    "month": "2020-11"
  },
  {
    "category": "anti-social-behaviour",
    "location_type": "Force",
    "location": {
      "latitude": "51.894985",
      "street": {
        "id": 707981,
        "name": "On or near Lansdown Parade"
      },
      "longitude": "-2.090212"
    },
    "context": "",
    "outcome_status": null,
    "persistent_id": "",
    "id": 88769235,
    "location_subtype": "",
    "month": "2020-11"
  },
  {
    "category": "anti-social-behaviour",
    "location_type": "Force",
    "location": {
      "latitude": "51.904987",
      "street": {
        "id": 708386,
        "name": "On or near Aston Grove"
      },
      "longitude": "-2.124710"
    },
    "context": "",
    "outcome_status": null,
    "persistent_id": "",
    "id": 88768897,
    "location_subtype": "",
    "month": "2020-11"
  },
  {
    "category": "anti-social-behaviour",
    "location_type": "Force",
    "location": {
      "latitude": "51.903263",
      "street": {
        "id": 708073,
        "name": "On or near Laxton Road"
      },
      "longitude": "-2.113150"
    },
    "context": "",
    "outcome_status": null,
    "persistent_id": "",
    "id": 88769328,
    "location_subtype": "",
    "month": "2020-11"
  },
  {
    "category": "anti-social-behaviour",
    "location_type": "Force",
    "location": {
      "latitude": "51.904962",
      "street": {
        "id": 708605,
        "name": "On or near Hereford Place"
      },
      "longitude": "-2.081438"
    },
    "context": "",
    "outcome_status": null,
    "persistent_id": "",
    "id": 88769331,
    "location_subtype": "",
    "month": "2020-11"
  },
  {
    "category": "anti-social-behaviour",
    "location_type": "Force",
    "location": {
      "latitude": "51.903666",
      "street": {
        "id": 708551,
        "name": "On or near Burton Street"
      },
      "longitude": "-2.083195"
    },
    "context": "",
    "outcome_status": null,
    "persistent_id": "",
    "id": 88769357,
    "location_subtype": "",
    "month": "2020-11"
  },
  {
    "category": "anti-social-behaviour",
    "location_type": "Force",
    "location": {
      "latitude": "51.907871",
      "street": {
        "id": 708454,
        "name": "On or near Oldbury Close"
      },
      "longitude": "-2.117843"
    },
    "context": "",
    "outcome_status": null,
    "persistent_id": "",
    "id": 88769359,
    "location_subtype": "",
    "month": "2020-11"
  },
  {
    "category": "anti-social-behaviour",
    "location_type": "Force",
    "location": {
      "latitude": "51.899151",
      "street": {
        "id": 708162,
        "name": "On or near Stow Court"
      },
      "longitude": "-2.097473"
    },
    "context": "",
    "outcome_status": null,
    "persistent_id": "",
    "id": 88769378,
    "location_subtype": "",
    "month": "2020-11"
  },
  {
    "category": "anti-social-behaviour",
    "location_type": "Force",
    "location": {
      "latitude": "51.899151",
      "street": {
        "id": 708162,
        "name": "On or near Stow Court"
      },
      "longitude": "-2.097473"
    },
    "context": "",
    "outcome_status": null,
    "persistent_id": "",
    "id": 88769391,
    "location_subtype": "",
    "month": "2020-11"
  },
  {
    "category": "anti-social-behaviour",
    "location_type": "Force",
    "location": {
      "latitude": "51.898325",
      "street": {
        "id": 708125,
        "name": "On or near Hillfield"
      },
      "longitude": "-2.106264"
    },
    "context": "",
    "outcome_status": null,
    "persistent_id": "",
    "id": 88769397,
    "location_subtype": "",
    "month": "2020-11"
  },
  {
    "category": "anti-social-behaviour",
    "location_type": "Force",
    "location": {
      "latitude": "51.904869",
      "street": {
        "id": 708626,
        "name": "On or near Bloomsbury Street"
      },
      "longitude": "-2.085959"
    },
    "context": "",
    "outcome_status": null,
    "persistent_id": "",
    "id": 88769452,
    "location_subtype": "",
    "month": "2020-11"
  },
  {
    "category": "anti-social-behaviour",
    "location_type": "Force",
    "location": {
      "latitude": "51.904697",
      "street": {
        "id": 708420,
        "name": "On or near Bryanstone Close"
      },
      "longitude": "-2.098444"
    },
    "context": "",
    "outcome_status": null,
    "persistent_id": "",
    "id": 88769848,
    "location_subtype": "",
    "month": "2020-11"
  },
  {
    "category": "anti-social-behaviour",
    "location_type": "Force",
    "location": {
      "latitude": "51.899967",
      "street": {
        "id": 708171,
        "name": "On or near Bus/coach Station"
      },
      "longitude": "-2.099320"
    },
    "context": "",
    "outcome_status": null,
    "persistent_id": "",
    "id": 88769873,
    "location_subtype": "",
    "month": "2020-11"
  },
  {
    "category": "anti-social-behaviour",
    "location_type": "Force",
    "location": {
      "latitude": "51.913594",
      "street": {
        "id": 708445,
        "name": "On or near Persimmon Gardens"
      },
      "longitude": "-2.112609"
    },
    "context": "",
    "outcome_status": null,
    "persistent_id": "",
    "id": 88769466,
    "location_subtype": "",
    "month": "2020-11"
  },
  {
    "category": "anti-social-behaviour",
    "location_type": "Force",
    "location": {
      "latitude": "51.907796",
      "street": {
        "id": 708460,
        "name": "On or near Montreal Drive"
      },
      "longitude": "-2.111330"
    },
    "context": "",
    "outcome_status": null,
    "persistent_id": "",
    "id": 88769467,
    "location_subtype": "",
    "month": "2020-11"
  },
  {
    "category": "anti-social-behaviour",
    "location_type": "Force",
    "location": {
      "latitude": "51.901122",
      "street": {
        "id": 708072,
        "name": "On or near Norfolk Avenue"
      },
      "longitude": "-2.104657"
    },
    "context": "",
    "outcome_status": null,
    "persistent_id": "",
    "id": 88769468,
    "location_subtype": "",
    "month": "2020-11"
  },
  {
    "category": "anti-social-behaviour",
    "location_type": "Force",
    "location": {
      "latitude": "51.909738",
      "street": {
        "id": 708497,
        "name": "On or near Sports/recreation Area"
      },
      "longitude": "-2.111393"
    },
    "context": "",
    "outcome_status": null,
    "persistent_id": "",
    "id": 88768864,
    "location_subtype": "",
    "month": "2020-11"
  },
  {
    "category": "anti-social-behaviour",
    "location_type": "Force",
    "location": {
      "latitude": "51.904497",
      "street": {
        "id": 708456,
        "name": "On or near Newton Road"
      },
      "longitude": "-2.111700"
    },
    "context": "",
    "outcome_status": null,
    "persistent_id": "",
    "id": 88768860,
    "location_subtype": "",
    "month": "2020-11"
  },
  {
    "category": "anti-social-behaviour",
    "location_type": "Force",
    "location": {
      "latitude": "51.912062",
      "street": {
        "id": 708434,
        "name": "On or near Village Road"
      },
      "longitude": "-2.107503"
    },
    "context": "",
    "outcome_status": null,
    "persistent_id": "",
    "id": 88768823,
    "location_subtype": "",
    "month": "2020-11"
  },
  {
    "category": "anti-social-behaviour",
    "location_type": "Force",
    "location": {
      "latitude": "51.906710",
      "street": {
        "id": 708355,
        "name": "On or near Graham Place"
      },
      "longitude": "-2.119482"
    },
    "context": "",
    "outcome_status": null,
    "persistent_id": "",
    "id": 88768808,
    "location_subtype": "",
    "month": "2020-11"
  },
  {
    "category": "anti-social-behaviour",
    "location_type": "Force",
    "location": {
      "latitude": "51.906223",
      "street": {
        "id": 708345,
        "name": "On or near Stanley Place"
      },
      "longitude": "-2.120251"
    },
    "context": "",
    "outcome_status": null,
    "persistent_id": "",
    "id": 88769475,
    "location_subtype": "",
    "month": "2020-11"
  },
  {
    "category": "anti-social-behaviour",
    "location_type": "Force",
    "location": {
      "latitude": "51.899151",
      "street": {
        "id": 708162,
        "name": "On or near Stow Court"
      },
      "longitude": "-2.097473"
    },
    "context": "",
    "outcome_status": null,
    "persistent_id": "",
    "id": 88769480,
    "location_subtype": "",
    "month": "2020-11"
  },
  {
    "category": "anti-social-behaviour",
    "location_type": "Force",
    "location": {
      "latitude": "51.899151",
      "street": {
        "id": 708162,
        "name": "On or near Stow Court"
      },
      "longitude": "-2.097473"
    },
    "context": "",
    "outcome_status": null,
    "persistent_id": "",
    "id": 88769483,
    "location_subtype": "",
    "month": "2020-11"
  },
  {
    "category": "anti-social-behaviour",
    "location_type": "Force",
    "location": {
      "latitude": "51.904869",
      "street": {
        "id": 708626,
        "name": "On or near Bloomsbury Street"
      },
      "longitude": "-2.085959"
    },
    "context": "",
    "outcome_status": null,
    "persistent_id": "",
    "id": 88768584,
    "location_subtype": "",
    "month": "2020-11"
  },
  {
    "category": "anti-social-behaviour",
    "location_type": "Force",
    "location": {
      "latitude": "51.910623",
      "street": {
        "id": 708425,
        "name": "On or near Moors Avenue"
      },
      "longitude": "-2.096931"
    },
    "context": "",
    "outcome_status": null,
    "persistent_id": "",
    "id": 88768581,
    "location_subtype": "",
    "month": "2020-11"
  },
  {
    "category": "anti-social-behaviour",
    "location_type": "Force",
    "location": {
      "latitude": "51.903235",
      "street": {
        "id": 708061,
        "name": "On or near Yalta Close"
      },
      "longitude": "-2.114328"
    },
    "context": "",
    "outcome_status": null,
    "persistent_id": "",
    "id": 88769511,
    "location_subtype": "",
    "month": "2020-11"
  },
  {
    "category": "anti-social-behaviour",
    "location_type": "Force",
    "location": {
      "latitude": "51.911697",
      "street": {
        "id": 708582,
        "name": "On or near Richards Road"
      },
      "longitude": "-2.092136"
    },
    "context": "",
    "outcome_status": null,
    "persistent_id": "",
    "id": 88769527,
    "location_subtype": "",
    "month": "2020-11"
  },
  {
    "category": "anti-social-behaviour",
    "location_type": "Force",
    "location": {
      "latitude": "51.912367",
      "street": {
        "id": 708426,
        "name": "On or near Brook Road"
      },
      "longitude": "-2.097153"
    },
    "context": "",
    "outcome_status": null,
    "persistent_id": "",
    "id": 88769536,
    "location_subtype": "",
    "month": "2020-11"
  },
  {
    "category": "anti-social-behaviour",
    "location_type": "Force",
    "location": {
      "latitude": "51.907251",
      "street": {
        "id": 708581,
        "name": "On or near Russell Place"
      },
      "longitude": "-2.086647"
    },
    "context": "",
    "outcome_status": null,
    "persistent_id": "",
    "id": 88769542,
    "location_subtype": "",
    "month": "2020-11"
  },
  {
    "category": "anti-social-behaviour",
    "location_type": "Force",
    "location": {
      "latitude": "51.903170",
      "street": {
        "id": 708056,
        "name": "On or near Alstone Lane"
      },
      "longitude": "-2.097075"
    },
    "context": "",
    "outcome_status": null,
    "persistent_id": "",
    "id": 88769665,
    "location_subtype": "",
    "month": "2020-11"
  },
  {
    "category": "anti-social-behaviour",
    "location_type": "Force",
    "location": {
      "latitude": "51.897507",
      "street": {
        "id": 708095,
        "name": "On or near Wasley Road"
      },
      "longitude": "-2.115287"
    },
    "context": "",
    "outcome_status": null,
    "persistent_id": "",
    "id": 88769680,
    "location_subtype": "",
    "month": "2020-11"
  },
  {
    "category": "anti-social-behaviour",
    "location_type": "Force",
    "location": {
      "latitude": "51.906649",
      "street": {
        "id": 708427,
        "name": "On or near Arle Road"
      },
      "longitude": "-2.097533"
    },
    "context": "",
    "outcome_status": null,
    "persistent_id": "",
    "id": 88768569,
    "location_subtype": "",
    "month": "2020-11"
  },
  {
    "category": "anti-social-behaviour",
    "location_type": "Force",
    "location": {
      "latitude": "51.901599",
      "street": {
        "id": 707897,
        "name": "On or near Pates Avenue"
      },
      "longitude": "-2.094223"
    },
    "context": "",
    "outcome_status": null,
    "persistent_id": "",
    "id": 88768536,
    "location_subtype": "",
    "month": "2020-11"
  },
  {
    "category": "anti-social-behaviour",
    "location_type": "Force",
    "location": {
      "latitude": "51.909738",
      "street": {
        "id": 708497,
        "name": "On or near Sports/recreation Area"
      },
      "longitude": "-2.111393"
    },
    "context": "",
    "outcome_status": null,
    "persistent_id": "",
    "id": 88769683,
    "location_subtype": "",
    "month": "2020-11"
  },
  {
    "category": "anti-social-behaviour",
    "location_type": "Force",
    "location": {
      "latitude": "51.897507",
      "street": {
        "id": 708095,
        "name": "On or near Wasley Road"
      },
      "longitude": "-2.115287"
    },
    "context": "",
    "outcome_status": null,
    "persistent_id": "",
    "id": 88769686,
    "location_subtype": "",
    "month": "2020-11"
  },
  {
    "category": "anti-social-behaviour",
    "location_type": "Force",
    "location": {
      "latitude": "51.903263",
      "street": {
        "id": 708073,
        "name": "On or near Laxton Road"
      },
      "longitude": "-2.113150"
    },
    "context": "",
    "outcome_status": null,
    "persistent_id": "",
    "id": 88769687,
    "location_subtype": "",
    "month": "2020-11"
  },
  {
    "category": "anti-social-behaviour",
    "location_type": "Force",
    "location": {
      "latitude": "51.906649",
      "street": {
        "id": 708427,
        "name": "On or near Arle Road"
      },
      "longitude": "-2.097533"
    },
    "context": "",
    "outcome_status": null,
    "persistent_id": "",
    "id": 88769694,
    "location_subtype": "",
    "month": "2020-11"
  },
  {
    "category": "anti-social-behaviour",
    "location_type": "Force",
    "location": {
      "latitude": "51.914246",
      "street": {
        "id": 708418,
        "name": "On or near Shopping Area"
      },
      "longitude": "-2.117060"
    },
    "context": "",
    "outcome_status": null,
    "persistent_id": "",
    "id": 88769700,
    "location_subtype": "",
    "month": "2020-11"
  },
  {
    "category": "anti-social-behaviour",
    "location_type": "Force",
    "location": {
      "latitude": "51.908771",
      "street": {
        "id": 708450,
        "name": "On or near Orchard Way"
      },
      "longitude": "-2.107917"
    },
    "context": "",
    "outcome_status": null,
    "persistent_id": "",
    "id": 88769733,
    "location_subtype": "",
    "month": "2020-11"
  },
  {
    "category": "anti-social-behaviour",
    "location_type": "Force",
    "location": {
      "latitude": "51.893379",
      "street": {
        "id": 708165,
        "name": "On or near Police Station"
      },
      "longitude": "-2.096806"
    },
    "context": "",
    "outcome_status": null,
    "persistent_id": "",
    "id": 88769742,
    "location_subtype": "",
    "month": "2020-11"
  },
  {
    "category": "anti-social-behaviour",
    "location_type": "Force",
    "location": {
      "latitude": "51.902001",
      "street": {
        "id": 708090,
        "name": "On or near Hospital"
      },
      "longitude": "-2.116984"
    },
    "context": "",
    "outcome_status": null,
    "persistent_id": "",
    "id": 88770116,
    "location_subtype": "",
    "month": "2020-11"
  },
  {
    "category": "anti-social-behaviour",
    "location_type": "Force",
    "location": {
      "latitude": "51.909713",
      "street": {
        "id": 708436,
        "name": "On or near Tanner's Lane"
      },
      "longitude": "-2.109779"
    },
    "context": "",
    "outcome_status": null,
    "persistent_id": "",
    "id": 88769076,
    "location_subtype": "",
    "month": "2020-11"
  },
  {
    "category": "anti-social-behaviour",
    "location_type": "Force",
    "location": {
      "latitude": "51.908522",
      "street": {
        "id": 708366,
        "name": "On or near Triscombe Way"
      },
      "longitude": "-2.122772"
    },
    "context": "",
    "outcome_status": null,
    "persistent_id": "",
    "id": 88770120,
    "location_subtype": "",
    "month": "2020-11"
  },
  {
    "category": "anti-social-behaviour",
    "location_type": "Force",
    "location": {
      "latitude": "51.907390",
      "street": {
        "id": 708382,
        "name": "On or near Dunster Gardens"
      },
      "longitude": "-2.122042"
    },
    "context": "",
    "outcome_status": null,
    "persistent_id": "",
    "id": 88770134,
    "location_subtype": "",
    "month": "2020-11"
  },
  {
    "category": "anti-social-behaviour",
    "location_type": "Force",
    "location": {
      "latitude": "51.896440",
      "street": {
        "id": 708136,
        "name": "On or near Gloucester Road"
      },
      "longitude": "-2.102205"
    },
    "context": "",
    "outcome_status": null,
    "persistent_id": "",
    "id": 88769060,
    "location_subtype": "",
    "month": "2020-11"
  },
  {
    "category": "anti-social-behaviour",
    "location_type": "Force",
    "location": {
      "latitude": "51.908526",
      "street": {
        "id": 708571,
        "name": "On or near Sun Street"
      },
      "longitude": "-2.088146"
    },
    "context": "",
    "outcome_status": null,
    "persistent_id": "",
    "id": 88770139,
    "location_subtype": "",
    "month": "2020-11"
  },
  {
    "category": "anti-social-behaviour",
    "location_type": "Force",
    "location": {
      "latitude": "51.903001",
      "street": {
        "id": 707890,
        "name": "On or near Station Street"
      },
      "longitude": "-2.082234"
    },
    "context": "",
    "outcome_status": null,
    "persistent_id": "",
    "id": 88770144,
    "location_subtype": "",
    "month": "2020-11"
  },
  {
    "category": "anti-social-behaviour",
    "location_type": "Force",
    "location": {
      "latitude": "51.899600",
      "street": {
        "id": 707961,
        "name": "On or near Overton Park Road"
      },
      "longitude": "-2.086050"
    },
    "context": "",
    "outcome_status": null,
    "persistent_id": "",
    "id": 88770158,
    "location_subtype": "",
    "month": "2020-11"
  },
  {
    "category": "anti-social-behaviour",
    "location_type": "Force",
    "location": {
      "latitude": "51.902400",
      "street": {
        "id": 708084,
        "name": "On or near Buckingham Avenue"
      },
      "longitude": "-2.103265"
    },
    "context": "",
    "outcome_status": null,
    "persistent_id": "",
    "id": 88770174,
    "location_subtype": "",
    "month": "2020-11"
  },
  {
    "category": "anti-social-behaviour",
    "location_type": "Force",
    "location": {
      "latitude": "51.907796",
      "street": {
        "id": 708460,
        "name": "On or near Montreal Drive"
      },
      "longitude": "-2.111330"
    },
    "context": "",
    "outcome_status": null,
    "persistent_id": "",
    "id": 88770175,
    "location_subtype": "",
    "month": "2020-11"
  },
  {
    "category": "anti-social-behaviour",
    "location_type": "Force",
    "location": {
      "latitude": "51.896440",
      "street": {
        "id": 708136,
        "name": "On or near Gloucester Road"
      },
      "longitude": "-2.102205"
    },
    "context": "",
    "outcome_status": null,
    "persistent_id": "",
    "id": 88769772,
    "location_subtype": "",
    "month": "2020-11"
  },
  {
    "category": "anti-social-behaviour",
    "location_type": "Force",
    "location": {
      "latitude": "51.899151",
      "street": {
        "id": 708162,
        "name": "On or near Stow Court"
      },
      "longitude": "-2.097473"
    },
    "context": "",
    "outcome_status": null,
    "persistent_id": "",
    "id": 88769776,
    "location_subtype": "",
    "month": "2020-11"
  },
  {
    "category": "anti-social-behaviour",
    "location_type": "Force",
    "location": {
      "latitude": "51.912367",
      "street": {
        "id": 708426,
        "name": "On or near Brook Road"
      },
      "longitude": "-2.097153"
    },
    "context": "",
    "outcome_status": null,
    "persistent_id": "",
    "id": 88769782,
    "location_subtype": "",
    "month": "2020-11"
  },
  {
    "category": "anti-social-behaviour",
    "location_type": "Force",
    "location": {
      "latitude": "51.902959",
      "street": {
        "id": 707913,
        "name": "On or near Ambrose Street"
      },
      "longitude": "-2.079124"
    },
    "context": "",
    "outcome_status": null,
    "persistent_id": "",
    "id": 88769792,
    "location_subtype": "",
    "month": "2020-11"
  },
  {
    "category": "anti-social-behaviour",
    "location_type": "Force",
    "location": {
      "latitude": "51.903263",
      "street": {
        "id": 708073,
        "name": "On or near Laxton Road"
      },
      "longitude": "-2.113150"
    },
    "context": "",
    "outcome_status": null,
    "persistent_id": "",
    "id": 88769794,
    "location_subtype": "",
    "month": "2020-11"
  },
  {
    "category": "anti-social-behaviour",
    "location_type": "Force",
    "location": {
      "latitude": "51.912412",
      "street": {
        "id": 708492,
        "name": "On or near Barlow Road"
      },
      "longitude": "-2.108201"
    },
    "context": "",
    "outcome_status": null,
    "persistent_id": "",
    "id": 88769801,
    "location_subtype": "",
    "month": "2020-11"
  },
  {
    "category": "anti-social-behaviour",
    "location_type": "Force",
    "location": {
      "latitude": "51.903151",
      "street": {
        "id": 708066,
        "name": "On or near St Aidans Close"
      },
      "longitude": "-2.117220"
    },
    "context": "",
    "outcome_status": null,
    "persistent_id": "",
    "id": 88769817,
    "location_subtype": "",
    "month": "2020-11"
  },
  {
    "category": "anti-social-behaviour",
    "location_type": "Force",
    "location": {
      "latitude": "51.904015",
      "street": {
        "id": 708595,
        "name": "On or near Market Street"
      },
      "longitude": "-2.085681"
    },
    "context": "",
    "outcome_status": null,
    "persistent_id": "",
    "id": 88769841,
    "location_subtype": "",
    "month": "2020-11"
  },
  {
    "category": "anti-social-behaviour",
    "location_type": "Force",
    "location": {
      "latitude": "51.908509",
      "street": {
        "id": 708351,
        "name": "On or near Hester's Way Road"
      },
      "longitude": "-2.118179"
    },
    "context": "",
    "outcome_status": null,
    "persistent_id": "",
    "id": 88769844,
    "location_subtype": "",
    "month": "2020-11"
  },
  {
    "category": "anti-social-behaviour",
    "location_type": "Force",
    "location": {
      "latitude": "51.899151",
      "street": {
        "id": 708162,
        "name": "On or near Stow Court"
      },
      "longitude": "-2.097473"
    },
    "context": "",
    "outcome_status": null,
    "persistent_id": "",
    "id": 88769846,
    "location_subtype": "",
    "month": "2020-11"
  },
  {
    "category": "anti-social-behaviour",
    "location_type": "Force",
    "location": {
      "latitude": "51.894878",
      "street": {
        "id": 708055,
        "name": "On or near Lansdown Crescent Lane"
      },
      "longitude": "-2.088236"
    },
    "context": "",
    "outcome_status": null,
    "persistent_id": "",
    "id": 88769881,
    "location_subtype": "",
    "month": "2020-11"
  },
  {
    "category": "anti-social-behaviour",
    "location_type": "Force",
    "location": {
      "latitude": "51.898352",
      "street": {
        "id": 708093,
        "name": "On or near Wordsworth Avenue"
      },
      "longitude": "-2.115638"
    },
    "context": "",
    "outcome_status": null,
    "persistent_id": "",
    "id": 88769885,
    "location_subtype": "",
    "month": "2020-11"
  },
  {
    "category": "anti-social-behaviour",
    "location_type": "Force",
    "location": {
      "latitude": "51.907796",
      "street": {
        "id": 708460,
        "name": "On or near Montreal Drive"
      },
      "longitude": "-2.111330"
    },
    "context": "",
    "outcome_status": null,
    "persistent_id": "",
    "id": 88769901,
    "location_subtype": "",
    "month": "2020-11"
  },
  {
    "category": "anti-social-behaviour",
    "location_type": "Force",
    "location": {
      "latitude": "51.898934",
      "street": {
        "id": 707960,
        "name": "On or near Overton Road"
      },
      "longitude": "-2.086660"
    },
    "context": "",
    "outcome_status": null,
    "persistent_id": "",
    "id": 88769909,
    "location_subtype": "",
    "month": "2020-11"
  },
  {
    "category": "anti-social-behaviour",
    "location_type": "Force",
    "location": {
      "latitude": "51.902015",
      "street": {
        "id": 707896,
        "name": "On or near Queen's Retreat"
      },
      "longitude": "-2.090270"
    },
    "context": "",
    "outcome_status": null,
    "persistent_id": "",
    "id": 88769932,
    "location_subtype": "",
    "month": "2020-11"
  },
  {
    "category": "anti-social-behaviour",
    "location_type": "Force",
    "location": {
      "latitude": "51.899151",
      "street": {
        "id": 708162,
        "name": "On or near Stow Court"
      },
      "longitude": "-2.097473"
    },
    "context": "",
    "outcome_status": null,
    "persistent_id": "",
    "id": 88769934,
    "location_subtype": "",
    "month": "2020-11"
  },
  {
    "category": "anti-social-behaviour",
    "location_type": "Force",
    "location": {
      "latitude": "51.902572",
      "street": {
        "id": 708078,
        "name": "On or near Edinburgh Place"
      },
      "longitude": "-2.112349"
    },
    "context": "",
    "outcome_status": null,
    "persistent_id": "",
    "id": 88769937,
    "location_subtype": "",
    "month": "2020-11"
  },
  {
    "category": "anti-social-behaviour",
    "location_type": "Force",
    "location": {
      "latitude": "51.908518",
      "street": {
        "id": 708583,
        "name": "On or near Queen Street"
      },
      "longitude": "-2.087303"
    },
    "context": "",
    "outcome_status": null,
    "persistent_id": "",
    "id": 88769939,
    "location_subtype": "",
    "month": "2020-11"
  },
  {
    "category": "anti-social-behaviour",
    "location_type": "Force",
    "location": {
      "latitude": "51.904497",
      "street": {
        "id": 708456,
        "name": "On or near Newton Road"
      },
      "longitude": "-2.111700"
    },
    "context": "",
    "outcome_status": null,
    "persistent_id": "",
    "id": 88769942,
    "location_subtype": "",
    "month": "2020-11"
  },
  {
    "category": "anti-social-behaviour",
    "location_type": "Force",
    "location": {
      "latitude": "51.899151",
      "street": {
        "id": 708162,
        "name": "On or near Stow Court"
      },
      "longitude": "-2.097473"
    },
    "context": "",
    "outcome_status": null,
    "persistent_id": "",
    "id": 88769944,
    "location_subtype": "",
    "month": "2020-11"
  },
  {
    "category": "anti-social-behaviour",
    "location_type": "Force",
    "location": {
      "latitude": "51.894878",
      "street": {
        "id": 708055,
        "name": "On or near Lansdown Crescent Lane"
      },
      "longitude": "-2.088236"
    },
    "context": "",
    "outcome_status": null,
    "persistent_id": "",
    "id": 88769951,
    "location_subtype": "",
    "month": "2020-11"
  },
  {
    "category": "anti-social-behaviour",
    "location_type": "Force",
    "location": {
      "latitude": "51.903067",
      "street": {
        "id": 707905,
        "name": "On or near High Street"
      },
      "longitude": "-2.079022"
    },
    "context": "",
    "outcome_status": null,
    "persistent_id": "",
    "id": 88769952,
    "location_subtype": "",
    "month": "2020-11"
  },
  {
    "category": "anti-social-behaviour",
    "location_type": "Force",
    "location": {
      "latitude": "51.902453",
      "street": {
        "id": 708179,
        "name": "On or near Peacock Close"
      },
      "longitude": "-2.123221"
    },
    "context": "",
    "outcome_status": null,
    "persistent_id": "",
    "id": 88769955,
    "location_subtype": "",
    "month": "2020-11"
  },
  {
    "category": "anti-social-behaviour",
    "location_type": "Force",
    "location": {
      "latitude": "51.894717",
      "street": {
        "id": 707979,
        "name": "On or near Lansdown Place Lane"
      },
      "longitude": "-2.087465"
    },
    "context": "",
    "outcome_status": null,
    "persistent_id": "",
    "id": 88769960,
    "location_subtype": "",
    "month": "2020-11"
  },
  {
    "category": "anti-social-behaviour",
    "location_type": "Force",
    "location": {
      "latitude": "51.895969",
      "street": {
        "id": 707957,
        "name": "On or near Parabola Road"
      },
      "longitude": "-2.084547"
    },
    "context": "",
    "outcome_status": null,
    "persistent_id": "",
    "id": 88769969,
    "location_subtype": "",
    "month": "2020-11"
  },
  {
    "category": "anti-social-behaviour",
    "location_type": "Force",
    "location": {
      "latitude": "51.903666",
      "street": {
        "id": 708551,
        "name": "On or near Burton Street"
      },
      "longitude": "-2.083195"
    },
    "context": "",
    "outcome_status": null,
    "persistent_id": "",
    "id": 88769996,
    "location_subtype": "",
    "month": "2020-11"
  },
  {
    "category": "anti-social-behaviour",
    "location_type": "Force",
    "location": {
      "latitude": "51.903666",
      "street": {
        "id": 708551,
        "name": "On or near Burton Street"
      },
      "longitude": "-2.083195"
    },
    "context": "",
    "outcome_status": null,
    "persistent_id": "",
    "id": 88770002,
    "location_subtype": "",
    "month": "2020-11"
  },
  {
    "category": "anti-social-behaviour",
    "location_type": "Force",
    "location": {
      "latitude": "51.912832",
      "street": {
        "id": 708475,
        "name": "On or near Frank Brookes Road"
      },
      "longitude": "-2.101123"
    },
    "context": "",
    "outcome_status": null,
    "persistent_id": "",
    "id": 88770404,
    "location_subtype": "",
    "month": "2020-11"
  },
  {
    "category": "anti-social-behaviour",
    "location_type": "Force",
    "location": {
      "latitude": "51.903595",
      "street": {
        "id": 708431,
        "name": "On or near Anapa Mews"
      },
      "longitude": "-2.114270"
    },
    "context": "",
    "outcome_status": null,
    "persistent_id": "",
    "id": 88769057,
    "location_subtype": "",
    "month": "2020-11"
  },
  {
    "category": "anti-social-behaviour",
    "location_type": "Force",
    "location": {
      "latitude": "51.898925",
      "street": {
        "id": 708226,
        "name": "On or near Hubble Road"
      },
      "longitude": "-2.118226"
    },
    "context": "",
    "outcome_status": null,
    "persistent_id": "",
    "id": 88770407,
    "location_subtype": "",
    "month": "2020-11"
  },
  {
    "category": "anti-social-behaviour",
    "location_type": "Force",
    "location": {
      "latitude": "51.906917",
      "street": {
        "id": 708502,
        "name": "On or near Hawthorn Road"
      },
      "longitude": "-2.110107"
    },
    "context": "",
    "outcome_status": null,
    "persistent_id": "",
    "id": 88770424,
    "location_subtype": "",
    "month": "2020-11"
  },
  {
    "category": "anti-social-behaviour",
    "location_type": "Force",
    "location": {
      "latitude": "51.899262",
      "street": {
        "id": 707948,
        "name": "On or near Royal Well Lane"
      },
      "longitude": "-2.080556"
    },
    "context": "",
    "outcome_status": null,
    "persistent_id": "",
    "id": 88770426,
    "location_subtype": "",
    "month": "2020-11"
  },
  {
    "category": "anti-social-behaviour",
    "location_type": "Force",
    "location": {
      "latitude": "51.899262",
      "street": {
        "id": 707948,
        "name": "On or near Royal Well Lane"
      },
      "longitude": "-2.080556"
    },
    "context": "",
    "outcome_status": null,
    "persistent_id": "",
    "id": 88770427,
    "location_subtype": "",
    "month": "2020-11"
  },
  {
    "category": "anti-social-behaviour",
    "location_type": "Force",
    "location": {
      "latitude": "51.902534",
      "street": {
        "id": 708077,
        "name": "On or near Evington Road"
      },
      "longitude": "-2.114776"
    },
    "context": "",
    "outcome_status": null,
    "persistent_id": "",
    "id": 88770430,
    "location_subtype": "",
    "month": "2020-11"
  },
  {
    "category": "anti-social-behaviour",
    "location_type": "Force",
    "location": {
      "latitude": "51.907849",
      "street": {
        "id": 708467,
        "name": "On or near Lechmere Road"
      },
      "longitude": "-2.113118"
    },
    "context": "",
    "outcome_status": null,
    "persistent_id": "",
    "id": 88770019,
    "location_subtype": "",
    "month": "2020-11"
  },
  {
    "category": "anti-social-behaviour",
    "location_type": "Force",
    "location": {
      "latitude": "51.897507",
      "street": {
        "id": 708095,
        "name": "On or near Wasley Road"
      },
      "longitude": "-2.115287"
    },
    "context": "",
    "outcome_status": null,
    "persistent_id": "",
    "id": 88770641,
    "location_subtype": "",
    "month": "2020-11"
  },
  {
    "category": "anti-social-behaviour",
    "location_type": "Force",
    "location": {
      "latitude": "51.905860",
      "street": {
        "id": 708566,
        "name": "On or near Swindon Street"
      },
      "longitude": "-2.083519"
    },
    "context": "",
    "outcome_status": null,
    "persistent_id": "",
    "id": 88770635,
    "location_subtype": "",
    "month": "2020-11"
  },
  {
    "category": "anti-social-behaviour",
    "location_type": "Force",
    "location": {
      "latitude": "51.908509",
      "street": {
        "id": 708351,
        "name": "On or near Hester's Way Road"
      },
      "longitude": "-2.118179"
    },
    "context": "",
    "outcome_status": null,
    "persistent_id": "",
    "id": 88770628,
    "location_subtype": "",
    "month": "2020-11"
  },
  {
    "category": "anti-social-behaviour",
    "location_type": "Force",
    "location": {
      "latitude": "51.894985",
      "street": {
        "id": 707981,
        "name": "On or near Lansdown Parade"
      },
      "longitude": "-2.090212"
    },
    "context": "",
    "outcome_status": null,
    "persistent_id": "",
    "id": 88770623,
    "location_subtype": "",
    "month": "2020-11"
  },
  {
    "category": "anti-social-behaviour",
    "location_type": "Force",
    "location": {
      "latitude": "51.897507",
      "street": {
        "id": 708095,
        "name": "On or near Wasley Road"
      },
      "longitude": "-2.115287"
    },
    "context": "",
    "outcome_status": null,
    "persistent_id": "",
    "id": 88770616,
    "location_subtype": "",
    "month": "2020-11"
  },
  {
    "category": "bicycle-theft",
    "location_type": "Force",
    "location": {
      "latitude": "51.905304",
      "street": {
        "id": 708488,
        "name": "On or near Braeburn Close"
      },
      "longitude": "-2.113243"
    },
    "context": "",
    "outcome_status": {
      "category": "Investigation complete; no suspect identified",
      "date": "2020-11"
    },
    "persistent_id": "86a7924095910d78a3f0239840cb7e99c1313d74c0e4c12a911d5db55241b922",
    "id": 88767623,
    "location_subtype": "",
    "month": "2020-11"
  },
  {
    "category": "bicycle-theft",
    "location_type": "Force",
    "location": {
      "latitude": "51.898608",
      "street": {
        "id": 708107,
        "name": "On or near Roman Road"
      },
      "longitude": "-2.101178"
    },
    "context": "",
    "outcome_status": {
      "category": "Investigation complete; no suspect identified",
      "date": "2020-11"
    },
    "persistent_id": "a67813393df5f17c859b9e62cf165335f9f6248b869bf5fc1028c6b58c92339b",
    "id": 88765754,
    "location_subtype": "",
    "month": "2020-11"
  },
  {
    "category": "bicycle-theft",
    "location_type": "Force",
    "location": {
      "latitude": "51.909768",
      "street": {
        "id": 708623,
        "name": "On or near Bullingham Court"
      },
      "longitude": "-2.086695"
    },
    "context": "",
    "outcome_status": {
      "category": "Under investigation",
      "date": "2020-11"
    },
    "persistent_id": "0feb66d21a91a1bf8d6dcfd2de42ed736b177986d334385b2f5f108cad4d8ee1",
    "id": 88765933,
    "location_subtype": "",
    "month": "2020-11"
  },
  {
    "category": "bicycle-theft",
    "location_type": "Force",
    "location": {
      "latitude": "51.905304",
      "street": {
        "id": 708488,
        "name": "On or near Braeburn Close"
      },
      "longitude": "-2.113243"
    },
    "context": "",
    "outcome_status": {
      "category": "Investigation complete; no suspect identified",
      "date": "2020-11"
    },
    "persistent_id": "b4945ecaeecb4bc80d11894ffcf9ad5d46a9a4f56481c1eefc14eaa1db384345",
    "id": 88765996,
    "location_subtype": "",
    "month": "2020-11"
  },
  {
    "category": "bicycle-theft",
    "location_type": "Force",
    "location": {
      "latitude": "51.899411",
      "street": {
        "id": 708153,
        "name": "On or near Byron Road"
      },
      "longitude": "-2.108243"
    },
    "context": "",
    "outcome_status": {
      "category": "Under investigation",
      "date": "2020-11"
    },
    "persistent_id": "196e45b969e9ad5f79804a137f5095f3be8eabbfd21252bb377c8ab62e1238de",
    "id": 88765798,
    "location_subtype": "",
    "month": "2020-11"
  },
  {
    "category": "bicycle-theft",
    "location_type": "Force",
    "location": {
      "latitude": "51.893379",
      "street": {
        "id": 708165,
        "name": "On or near Police Station"
      },
      "longitude": "-2.096806"
    },
    "context": "",
    "outcome_status": {
      "category": "Under investigation",
      "date": "2020-11"
    },
    "persistent_id": "ae63e88a96bc89d8ea9938b7d10b96dd24b49a63b9e471f5fbb48420d0755556",
    "id": 88766794,
    "location_subtype": "",
    "month": "2020-11"
  },
  {
    "category": "bicycle-theft",
    "location_type": "Force",
    "location": {
      "latitude": "51.902006",
      "street": {
        "id": 708085,
        "name": "On or near Britten Place"
      },
      "longitude": "-2.111505"
    },
    "context": "",
    "outcome_status": {
      "category": "Investigation complete; no suspect identified",
      "date": "2020-11"
    },
    "persistent_id": "e9c8edbba8f43416b26840018fb3870e5c9ef019ef0604d45198cb2c9d2f83ec",
    "id": 88767374,
    "location_subtype": "",
    "month": "2020-11"
  },
  {
    "category": "burglary",
    "location_type": "Force",
    "location": {
      "latitude": "51.901441",
      "street": {
        "id": 707892,
        "name": "On or near St George's Road"
      },
      "longitude": "-2.089688"
    },
    "context": "",
    "outcome_status": {
      "category": "Investigation complete; no suspect identified",
      "date": "2020-11"
    },
    "persistent_id": "191f2a4638ea3a77b813b10fdc179f42d4f1e6e1839acd6434133b7b80f1e6c3",
    "id": 88765955,
    "location_subtype": "",
    "month": "2020-11"
  },
  {
    "category": "burglary",
    "location_type": "Force",
    "location": {
      "latitude": "51.903170",
      "street": {
        "id": 708056,
        "name": "On or near Alstone Lane"
      },
      "longitude": "-2.097075"
    },
    "context": "",
    "outcome_status": {
      "category": "Investigation complete; no suspect identified",
      "date": "2020-11"
    },
    "persistent_id": "4ca8d8bb4fbe6fee2a577026aa0e2143d70cfbd55bc12776df00b1ef3ff2de89",
    "id": 88767582,
    "location_subtype": "",
    "month": "2020-11"
  },
  {
    "category": "burglary",
    "location_type": "Force",
    "location": {
      "latitude": "51.902138",
      "street": {
        "id": 708064,
        "name": "On or near Surrey Mews"
      },
      "longitude": "-2.104747"
    },
    "context": "",
    "outcome_status": {
      "category": "Under investigation",
      "date": "2020-11"
    },
    "persistent_id": "6f4bece8f93052b17fb8fa11aaff2d0a2ea92fc28cefd643e6fcde0c1632cea4",
    "id": 88767058,
    "location_subtype": "",
    "month": "2020-11"
  },
  {
    "category": "burglary",
    "location_type": "Force",
    "location": {
      "latitude": "51.899469",
      "street": {
        "id": 708123,
        "name": "On or near Kipling Road"
      },
      "longitude": "-2.112923"
    },
    "context": "",
    "outcome_status": {
      "category": "Investigation complete; no suspect identified",
      "date": "2020-11"
    },
    "persistent_id": "025ac5422b4b70a596e36349654f17fa47b21ad880637a36b17501d92f3dc2d4",
    "id": 88766648,
    "location_subtype": "",
    "month": "2020-11"
  },
  {
    "category": "burglary",
    "location_type": "Force",
    "location": {
      "latitude": "51.895464",
      "street": {
        "id": 708155,
        "name": "On or near Benhall Avenue"
      },
      "longitude": "-2.117287"
    },
    "context": "",
    "outcome_status": {
      "category": "Under investigation",
      "date": "2020-11"
    },
    "persistent_id": "443b847c8daff9a084133698c48b2fcd61fde57a55d0a2c1ffa7db5be14fbca2",
    "id": 88767020,
    "location_subtype": "",
    "month": "2020-11"
  },
  {
    "category": "burglary",
    "location_type": "Force",
    "location": {
      "latitude": "51.903449",
      "street": {
        "id": 708062,
        "name": "On or near Wilson Drive"
      },
      "longitude": "-2.116741"
    },
    "context": "",
    "outcome_status": {
      "category": "Under investigation",
      "date": "2020-11"
    },
    "persistent_id": "3187998ffff0ac907fcc7f6a7c151b83630ba996873daee1378b096169b6380f",
    "id": 88767621,
    "location_subtype": "",
    "month": "2020-11"
  },
  {
    "category": "burglary",
    "location_type": "Force",
    "location": {
      "latitude": "51.903170",
      "street": {
        "id": 708056,
        "name": "On or near Alstone Lane"
      },
      "longitude": "-2.097075"
    },
    "context": "",
    "outcome_status": {
      "category": "Investigation complete; no suspect identified",
      "date": "2020-11"
    },
    "persistent_id": "634a1df9d0bb09a736c94961cf2e10a0dea0f46e67d8ede0e64c35d4bfa77ef8",
    "id": 88767581,
    "location_subtype": "",
    "month": "2020-11"
  },
  {
    "category": "burglary",
    "location_type": "Force",
    "location": {
      "latitude": "51.903170",
      "street": {
        "id": 708056,
        "name": "On or near Alstone Lane"
      },
      "longitude": "-2.097075"
    },
    "context": "",
    "outcome_status": {
      "category": "Investigation complete; no suspect identified",
      "date": "2020-11"
    },
    "persistent_id": "f26ef02300d1672c0984b0430a72b450ff3f61048cd6000de29452b9b073c585",
    "id": 88767580,
    "location_subtype": "",
    "month": "2020-11"
  },
  {
    "category": "burglary",
    "location_type": "Force",
    "location": {
      "latitude": "51.907251",
      "street": {
        "id": 708581,
        "name": "On or near Russell Place"
      },
      "longitude": "-2.086647"
    },
    "context": "",
    "outcome_status": {
      "category": "Under investigation",
      "date": "2020-11"
    },
    "persistent_id": "66defc81565dcb77f4be132dec05dda6f05138188600e0b8e860730f392e95eb",
    "id": 88767478,
    "location_subtype": "",
    "month": "2020-11"
  },
  {
    "category": "burglary",
    "location_type": "Force",
    "location": {
      "latitude": "51.896686",
      "street": {
        "id": 707971,
        "name": "On or near Malvern Place"
      },
      "longitude": "-2.088167"
    },
    "context": "",
    "outcome_status": {
      "category": "Under investigation",
      "date": "2020-11"
    },
    "persistent_id": "f1e42e4ef1fd223ca801407315d2c404905e65ff45faeb6c432878679e5dbf67",
    "id": 88767318,
    "location_subtype": "",
    "month": "2020-11"
  },
  {
    "category": "burglary",
    "location_type": "Force",
    "location": {
      "latitude": "51.905647",
      "street": {
        "id": 708530,
        "name": "On or near St Paul's Street North"
      },
      "longitude": "-2.078227"
    },
    "context": "",
    "outcome_status": {
      "category": "Under investigation",
      "date": "2020-11"
    },
    "persistent_id": "5639ddb41d640e392495488158be422284713892e43e3e20ba9b526a3e3c2175",
    "id": 88765974,
    "location_subtype": "",
    "month": "2020-11"
  },
  {
    "category": "burglary",
    "location_type": "Force",
    "location": {
      "latitude": "51.896726",
      "street": {
        "id": 708148,
        "name": "On or near Church Road"
      },
      "longitude": "-2.104792"
    },
    "context": "",
    "outcome_status": {
      "category": "Investigation complete; no suspect identified",
      "date": "2020-11"
    },
    "persistent_id": "5c7998c19e40054ff8bf89b718127166965025941d28f0100c0b0b9ff26745ef",
    "id": 88765991,
    "location_subtype": "",
    "month": "2020-11"
  },
  {
    "category": "burglary",
    "location_type": "Force",
    "location": {
      "latitude": "51.900840",
      "street": {
        "id": 708088,
        "name": "On or near Sports/recreation Area"
      },
      "longitude": "-2.109118"
    },
    "context": "",
    "outcome_status": {
      "category": "Investigation complete; no suspect identified",
      "date": "2020-11"
    },
    "persistent_id": "e44e985e520bfec03e62fa986f6a660fb39eee21071354e09b3b654b1d8a61c1",
    "id": 88767129,
    "location_subtype": "",
    "month": "2020-11"
  },
  {
    "category": "burglary",
    "location_type": "Force",
    "location": {
      "latitude": "51.904162",
      "street": {
        "id": 708478,
        "name": "On or near Dowty Road"
      },
      "longitude": "-2.113196"
    },
    "context": "",
    "outcome_status": {
      "category": "Investigation complete; no suspect identified",
      "date": "2020-11"
    },
    "persistent_id": "fe8827c8a8eb966c1f6afb680d356e977ac6b4fd7f561da9bf11d69c883aeba0",
    "id": 88767037,
    "location_subtype": "",
    "month": "2020-11"
  },
  {
    "category": "burglary",
    "location_type": "Force",
    "location": {
      "latitude": "51.896435",
      "street": {
        "id": 700957,
        "name": "On or near Lansdown Terrace Lane"
      },
      "longitude": "-2.086248"
    },
    "context": "",
    "outcome_status": {
      "category": "Investigation complete; no suspect identified",
      "date": "2020-11"
    },
    "persistent_id": "a457419b73b5093be25d73f80293d8fa897c7d24976d8453e245a4c20b922a53",
    "id": 88766988,
    "location_subtype": "",
    "month": "2020-11"
  },
  {
    "category": "burglary",
    "location_type": "Force",
    "location": {
      "latitude": "51.898274",
      "street": {
        "id": 708116,
        "name": "On or near Libertus Road"
      },
      "longitude": "-2.103066"
    },
    "context": "",
    "outcome_status": {
      "category": "Investigation complete; no suspect identified",
      "date": "2020-11"
    },
    "persistent_id": "a6713829b158909de9e4b65581c05712753ad63b3a11975d435f8b4f7926b1b1",
    "id": 88766000,
    "location_subtype": "",
    "month": "2020-11"
  },
  {
    "category": "burglary",
    "location_type": "Force",
    "location": {
      "latitude": "51.908455",
      "street": {
        "id": 708439,
        "name": "On or near Russet Road"
      },
      "longitude": "-2.109311"
    },
    "context": "",
    "outcome_status": {
      "category": "Unable to prosecute suspect",
      "date": "2020-11"
    },
    "persistent_id": "1c67794537e1194256e0b702d188bc29bc1fbc42a027a0c11b76b934fa3305bb",
    "id": 88765995,
    "location_subtype": "",
    "month": "2020-11"
  },
  {
    "category": "burglary",
    "location_type": "Force",
    "location": {
      "latitude": "51.914753",
      "street": {
        "id": 708395,
        "name": "On or near Seabright Close"
      },
      "longitude": "-2.113528"
    },
    "context": "",
    "outcome_status": {
      "category": "Investigation complete; no suspect identified",
      "date": "2020-11"
    },
    "persistent_id": "c8d9339d583b7835d1a344ca0aed08e95295007bdc7bfdf8364195a530f78458",
    "id": 88766703,
    "location_subtype": "",
    "month": "2020-11"
  },
  {
    "category": "criminal-damage-arson",
    "location_type": "Force",
    "location": {
      "latitude": "51.913855",
      "street": {
        "id": 708412,
        "name": "On or near Bodnam Road"
      },
      "longitude": "-2.113119"
    },
    "context": "",
    "outcome_status": {
      "category": "Unable to prosecute suspect",
      "date": "2020-11"
    },
    "persistent_id": "bad7bb92c5c1a5568bd9cbcf132f1326e395001bf4c5e51cf33275d3805b50bd",
    "id": 88767619,
    "location_subtype": "",
    "month": "2020-11"
  },
  {
    "category": "criminal-damage-arson",
    "location_type": "Force",
    "location": {
      "latitude": "51.903666",
      "street": {
        "id": 708551,
        "name": "On or near Burton Street"
      },
      "longitude": "-2.083195"
    },
    "context": "",
    "outcome_status": {
      "category": "Under investigation",
      "date": "2020-11"
    },
    "persistent_id": "2b5b630e0bd42a47f23e11cc65f37533660a60e49f20d47dd1e83b4a5ce7249d",
    "id": 88767952,
    "location_subtype": "",
    "month": "2020-11"
  },
  {
    "category": "criminal-damage-arson",
    "location_type": "Force",
    "location": {
      "latitude": "51.903263",
      "street": {
        "id": 708073,
        "name": "On or near Laxton Road"
      },
      "longitude": "-2.113150"
    },
    "context": "",
    "outcome_status": {
      "category": "Under investigation",
      "date": "2020-11"
    },
    "persistent_id": "7639dda0a7ef6bc27e6824e198a742343b3b115ecadbd4e81fff7e9b2273ec68",
    "id": 88767500,
    "location_subtype": "",
    "month": "2020-11"
  },
  {
    "category": "criminal-damage-arson",
    "location_type": "Force",
    "location": {
      "latitude": "51.915524",
      "street": {
        "id": 708514,
        "name": "On or near Kingsditch Lane"
      },
      "longitude": "-2.096636"
    },
    "context": "",
    "outcome_status": {
      "category": "Under investigation",
      "date": "2020-11"
    },
    "persistent_id": "ad7dfd2d1865237c66180dc3e426d06868544fdffa751d7c007f0eb2f0e0c7fc",
    "id": 88767442,
    "location_subtype": "",
    "month": "2020-11"
  },
  {
    "category": "criminal-damage-arson",
    "location_type": "Force",
    "location": {
      "latitude": "51.906854",
      "street": {
        "id": 708641,
        "name": "On or near Petrol Station"
      },
      "longitude": "-2.088245"
    },
    "context": "",
    "outcome_status": {
      "category": "Under investigation",
      "date": "2020-11"
    },
    "persistent_id": "51b83f29d639c1e0df7da00c6f0372a42ec5f0cdffba3906cc3627c23e288701",
    "id": 88767325,
    "location_subtype": "",
    "month": "2020-11"
  },
  {
    "category": "criminal-damage-arson",
    "location_type": "Force",
    "location": {
      "latitude": "51.905839",
      "street": {
        "id": 708452,
        "name": "On or near Orchard Avenue"
      },
      "longitude": "-2.109014"
    },
    "context": "",
    "outcome_status": {
      "category": "Under investigation",
      "date": "2020-11"
    },
    "persistent_id": "7f3f392ee0020869de10f9c93dd4d822569cea653bbfdab5a33bd54e1ed0090d",
    "id": 88767182,
    "location_subtype": "",
    "month": "2020-11"
  },
  {
    "category": "criminal-damage-arson",
    "location_type": "Force",
    "location": {
      "latitude": "51.907251",
      "street": {
        "id": 708581,
        "name": "On or near Russell Place"
      },
      "longitude": "-2.086647"
    },
    "context": "",
    "outcome_status": {
      "category": "Under investigation",
      "date": "2020-11"
    },
    "persistent_id": "f5e888af40f981aacccefa7abef20c3218c5883b1d3f6df602236fa96764654d",
    "id": 88767173,
    "location_subtype": "",
    "month": "2020-11"
  },
  {
    "category": "criminal-damage-arson",
    "location_type": "Force",
    "location": {
      "latitude": "51.910623",
      "street": {
        "id": 708425,
        "name": "On or near Moors Avenue"
      },
      "longitude": "-2.096931"
    },
    "context": "",
    "outcome_status": {
      "category": "Under investigation",
      "date": "2020-11"
    },
    "persistent_id": "783da6414fffb74486a38be7d0858fdc7945031b05129fe3f8da7c4401d7eef6",
    "id": 88767142,
    "location_subtype": "",
    "month": "2020-11"
  },
  {
    "category": "criminal-damage-arson",
    "location_type": "Force",
    "location": {
      "latitude": "51.911262",
      "street": {
        "id": 708424,
        "name": "On or near St Peter's Square"
      },
      "longitude": "-2.097063"
    },
    "context": "",
    "outcome_status": {
      "category": "Investigation complete; no suspect identified",
      "date": "2020-11"
    },
    "persistent_id": "ece02fc3020219904944ac730e99014df0f97873abaa57e11447bac17b922c8e",
    "id": 88767140,
    "location_subtype": "",
    "month": "2020-11"
  },
  {
    "category": "criminal-damage-arson",
    "location_type": "Force",
    "location": {
      "latitude": "51.903151",
      "street": {
        "id": 708066,
        "name": "On or near St Aidans Close"
      },
      "longitude": "-2.117220"
    },
    "context": "",
    "outcome_status": {
      "category": "Under investigation",
      "date": "2020-11"
    },
    "persistent_id": "f70b0c0f16dd18840120411ed79fb10ffe5fecbc7df4eb28a3b91dd4e1a37ba3",
    "id": 88767131,
    "location_subtype": "",
    "month": "2020-11"
  },
  {
    "category": "criminal-damage-arson",
    "location_type": "Force",
    "location": {
      "latitude": "51.910301",
      "street": {
        "id": 708575,
        "name": "On or near St Peters Close"
      },
      "longitude": "-2.095607"
    },
    "context": "",
    "outcome_status": {
      "category": "Under investigation",
      "date": "2020-11"
    },
    "persistent_id": "e55e32300bbfde73dad4e0629f6fef1fecbc8d55f2f0103d716c8622c817cbcd",
    "id": 88767122,
    "location_subtype": "",
    "month": "2020-11"
  },
  {
    "category": "criminal-damage-arson",
    "location_type": "Force",
    "location": {
      "latitude": "51.902734",
      "street": {
        "id": 708175,
        "name": "On or near Frewin Close"
      },
      "longitude": "-2.120736"
    },
    "context": "",
    "outcome_status": {
      "category": "Under investigation",
      "date": "2020-11"
    },
    "persistent_id": "71e34046fff50520385fe2a6292117a08b2622dc5dd8d42464dcb9aaf2a7d1ca",
    "id": 88766968,
    "location_subtype": "",
    "month": "2020-11"
  },
  {
    "category": "criminal-damage-arson",
    "location_type": "Force",
    "location": {
      "latitude": "51.912062",
      "street": {
        "id": 708434,
        "name": "On or near Village Road"
      },
      "longitude": "-2.107503"
    },
    "context": "",
    "outcome_status": {
      "category": "Under investigation",
      "date": "2020-11"
    },
    "persistent_id": "81f464b2cc20d936d505a0ee157d480ea3c92cf857c65f2f56791c8f08e0edf6",
    "id": 88766945,
    "location_subtype": "",
    "month": "2020-11"
  },
  {
    "category": "criminal-damage-arson",
    "location_type": "Force",
    "location": {
      "latitude": "51.908838",
      "street": {
        "id": 708609,
        "name": "On or near Folly Lane"
      },
      "longitude": "-2.080690"
    },
    "context": "",
    "outcome_status": {
      "category": "Under investigation",
      "date": "2020-11"
    },
    "persistent_id": "0ffda74832f59047d398062192e52bb78bcb0e65cb5abc503f2cfab86c08c996",
    "id": 88766899,
    "location_subtype": "",
    "month": "2020-11"
  },
  {
    "category": "criminal-damage-arson",
    "location_type": "Force",
    "location": {
      "latitude": "51.899684",
      "street": {
        "id": 708103,
        "name": "On or near Shelley Avenue"
      },
      "longitude": "-2.113955"
    },
    "context": "",
    "outcome_status": {
      "category": "Under investigation",
      "date": "2020-11"
    },
    "persistent_id": "c6002d8b2bd2fdfbccd554c4bd0d298a202a9be5b35219a02c45a16d86167d9d",
    "id": 88766809,
    "location_subtype": "",
    "month": "2020-11"
  },
  {
    "category": "criminal-damage-arson",
    "location_type": "Force",
    "location": {
      "latitude": "51.897507",
      "street": {
        "id": 708095,
        "name": "On or near Wasley Road"
      },
      "longitude": "-2.115287"
    },
    "context": "",
    "outcome_status": {
      "category": "Under investigation",
      "date": "2020-11"
    },
    "persistent_id": "70d70635677fd0f83c18755efeef046ddb19a5c8a985cb59ed3ffe65fd55505f",
    "id": 88767095,
    "location_subtype": "",
    "month": "2020-11"
  },
  {
    "category": "criminal-damage-arson",
    "location_type": "Force",
    "location": {
      "latitude": "51.899530",
      "street": {
        "id": 708102,
        "name": "On or near Shelley Road"
      },
      "longitude": "-2.115001"
    },